[
  {
    "name": "인천서브",
    "address": "인천시 서구 호두산로10번길 38-12",
    "category": "대신택배",
    "lat": 37.5467992025042,
    "lng": 126.64851285152
  },
  {
    "name": "인천계양",
    "address": "인천시 계양구 봉오대로894번길 33",
    "category": "대신택배",
    "lat": 37.5272914814943,
    "lng": 126.748677742742
  },
  {
    "name": "인천숭의",
    "address": "인천시 미추홀구 경인로 50",
    "category": "대신택배",
    "lat": 37.4643178150895,
    "lng": 126.648517622106
  },
  {
    "name": "인천주안",
    "address": "인천광역시 남동구 염전로 421",
    "category": "대신택배",
    "lat": 37.4695818606266,
    "lng": 126.686937526776
  },
  {
    "name": "인천구월",
    "address": "인천시 남동구 호구포로739번길 50",
    "category": "대신택배",
    "lat": 37.4486686499602,
    "lng": 126.715566531158
  },
  {
    "name": "인천서고잔",
    "address": "인천시 남동구 은청로4-19 c동109호",
    "category": "대신택배",
    "lat": 37.4066263671135,
    "lng": 126.693305107356
  },
  {
    "name": "인천논현",
    "address": "인천시 남동구 남동대로262번길 30-13",
    "category": "대신택배",
    "lat": 37.4064031436546,
    "lng": 126.701348958024
  },
  {
    "name": "인천동고잔",
    "address": "인천시 남동구 논현고잔로54번길 72",
    "category": "대신택배",
    "lat": 37.3869541464536,
    "lng": 126.715616452323
  },
  {
    "name": "천재교육",
    "address": "인천광역시 서구 정서진로 47",
    "category": "대신택배",
    "lat": 37.5588466890688,
    "lng": 126.613055241702
  },
  {
    "name": "인천송림",
    "address": "인천시 동구 방축로38번길 38",
    "category": "대신택배",
    "lat": 37.4850647053873,
    "lng": 126.64917652568
  },
  {
    "name": "인천부평",
    "address": "인천시 부평구 항동로144번길 2",
    "category": "대신택배",
    "lat": 37.481178294442,
    "lng": 126.749303171216
  },
  {
    "name": "인천청천",
    "address": "인천시 부평구 평천로 135",
    "category": "대신택배",
    "lat": 37.5201646473475,
    "lng": 126.70717325204
  },
  {
    "name": "인천가좌1",
    "address": "인천광역시 서구 건지로 98-75",
    "category": "대신택배",
    "lat": 37.4962278110929,
    "lng": 126.654786171097
  },
  {
    "name": "인천검단",
    "address": "인천시 서구 봉수대로1394번길 2",
    "category": "대신택배",
    "lat": 37.5974481506468,
    "lng": 126.651865575731
  },
  {
    "name": "인천가좌3",
    "address": "인천시 서구 백범로698번길 3",
    "category": "대신택배",
    "lat": 37.482587321415,
    "lng": 126.680067047291
  },
  {
    "name": "인천경서",
    "address": "인천시 서구 호두산로10번길 38-12",
    "category": "대신택배",
    "lat": 37.5467992025042,
    "lng": 126.64851285152
  },
  {
    "name": "인천연수",
    "address": "인천시 연수구 벚꽃로 156",
    "category": "대신택배",
    "lat": 37.4151943051809,
    "lng": 126.682148093999
  },
  {
    "name": "영종도",
    "address": "중구 공항동로296번길98-114 B1블럭 IILC B동209호",
    "category": "대신택배",
    "lat": 37.4762266826232,
    "lng": 126.4827394937
  },
  {
    "name": "인천항",
    "address": "인천시 중구 연안부두로55번길 14",
    "category": "대신택배",
    "lat": 37.452908842483,
    "lng": 126.600945211439
  },
  {
    "name": "강화읍",
    "address": "인천광역시 강화군 강화읍 동문로 256",
    "category": "대신택배",
    "lat": 37.7610892075214,
    "lng": 126.507354975318
  },
  {
    "name": "인천센터",
    "address": "인천광역시 서구 오류동1548-1",
    "category": "대신택배",
    "lat": 37.5642540825014,
    "lng": 126.606730284678
  },
  {
    "name": "인천남고잔",
    "address": "인천광역시 남동구 남동서로 52",
    "category": "대신택배",
    "lat": 37.3961090639959,
    "lng": 126.683831563472
  },
  {
    "name": "인천오류",
    "address": "인천광역시 서구 보듬6로 18",
    "category": "대신택배",
    "lat": 37.5944704096431,
    "lng": 126.61472423478
  },
  {
    "name": "인천터영",
    "address": "인천광역시 서구 오류동 1548-1",
    "category": "대신택배",
    "lat": 37.5642540825014,
    "lng": 126.606730284678
  },
  {
    "name": "인천원당",
    "address": "인천광역시 서구 원당동827-1",
    "category": "대신택배",
    "lat": 37.6018692102387,
    "lng": 126.699297375638
  },
  {
    "name": "인천남촌",
    "address": "인천광역시 남동구 남동대로 433",
    "category": "대신택배",
    "lat": 37.4222016770087,
    "lng": 126.707923901338
  },
  {
    "name": "인천도화",
    "address": "인천광역시 미추홀구 송림로 306-1",
    "category": "대신택배",
    "lat": 37.4756608268774,
    "lng": 126.667049644573
  },
  {
    "name": "인천원창",
    "address": "인천광역시 서구 북항로193번길 3",
    "category": "대신택배",
    "lat": 37.506388966482,
    "lng": 126.62710700409
  },
  {
    "name": "인천송도",
    "address": "인천광역시 중구 축항대로296번길 60-34",
    "category": "대신택배",
    "lat": 37.4438943383724,
    "lng": 126.626157600523
  },
  {
    "name": "분당물류",
    "address": "인천광역시 서구 정서진8로 5",
    "category": "대신택배",
    "lat": 37.5611299639293,
    "lng": 126.620853282581
  },
  {
    "name": "인천센터영",
    "address": "인천광역시 서구 갑문로 6",
    "category": "대신택배",
    "lat": 37.5634963865435,
    "lng": 126.606335970263
  },
  {
    "name": "인천산곡",
    "address": "인천광역시 남동구 석정로552번길 8",
    "category": "대신택배",
    "lat": 37.465610593484,
    "lng": 126.696720289717
  },
  {
    "name": "천호동",
    "address": "경기도 하남시 초이로99번길 85",
    "category": "대신택배",
    "lat": 37.54249,
    "lng": 127.16976
  },
  {
    "name": "미아리",
    "address": "서울시 강북구 한천로 943",
    "category": "대신택배",
    "lat": 37.6344360044187,
    "lng": 127.034887460454
  },
  {
    "name": "강서공항",
    "address": "경기도 부천시 봉오대로527번길 71",
    "category": "대신택배",
    "lat": 37.54024,
    "lng": 126.81615
  },
  {
    "name": "강서화곡",
    "address": "서울시 강서구 강서로29길 66",
    "category": "대신택배",
    "lat": 37.5387173224315,
    "lng": 126.838271184981
  },
  {
    "name": "관악",
    "address": "서울특별시금천구 남부순환로 1314-22",
    "category": "대신택배",
    "lat": 37.4776093156541,
    "lng": 126.897674953591
  },
  {
    "name": "광진광장",
    "address": "서울시 광진구 아차산로78가길 32",
    "category": "대신택배",
    "lat": 37.5487023803059,
    "lng": 127.108683126983
  },
  {
    "name": "구로중앙",
    "address": "서울시 구로구 경인로53길 15",
    "category": "대신택배",
    "lat": 37.5020321024364,
    "lng": 126.876117278882
  },
  {
    "name": "구로신도림",
    "address": "서울시 구로구 경인로 579",
    "category": "대신택배",
    "lat": 37.5046253136613,
    "lng": 126.880875262842
  },
  {
    "name": "구로오류동",
    "address": "서울시 구로구 오류동123",
    "category": "대신택배",
    "lat": 37.4908771316435,
    "lng": 126.835143023115
  },
  {
    "name": "구로고척",
    "address": "서울 구로구 고척동46-13",
    "category": "대신택배",
    "lat": 37.5030647206802,
    "lng": 126.864287506104
  },
  {
    "name": "금천독산",
    "address": "서울시 금천구 두산로 1",
    "category": "대신택배",
    "lat": 37.4708366866516,
    "lng": 126.888026246997
  },
  {
    "name": "금천가산",
    "address": "서울시 금천구 가산로7길 55",
    "category": "대신택배",
    "lat": 37.4742224058411,
    "lng": 126.890422958577
  },
  {
    "name": "금천유통",
    "address": "서울시 금천구 시흥대로 97",
    "category": "대신택배",
    "lat": 37.4446821230267,
    "lng": 126.901072369386
  },
  {
    "name": "노원상계",
    "address": "서울시 노원구 동일로237마길 30",
    "category": "대신택배",
    "lat": 37.6747722175354,
    "lng": 127.05191560962
  },
  {
    "name": "제기동",
    "address": "서울시 동대문구 왕산로23길 35",
    "category": "대신택배",
    "lat": 37.5799052604262,
    "lng": 127.034151379007
  },
  {
    "name": "장안평",
    "address": "서울시 동대문구 황물로15길 25",
    "category": "대신택배",
    "lat": 37.5665625256918,
    "lng": 127.057188313736
  },
  {
    "name": "신설동",
    "address": "서울시 동대문구 하정로 19",
    "category": "대신택배",
    "lat": 37.5727071945594,
    "lng": 127.026521390872
  },
  {
    "name": "동작",
    "address": "서울 동작구 동작대로13길 14",
    "category": "대신택배",
    "lat": 37.4818442757108,
    "lng": 126.9802367184
  },
  {
    "name": "마포",
    "address": "서울시 마포구 월드컵북로16길 11",
    "category": "대신택배",
    "lat": 37.5630250047226,
    "lng": 126.91494252079
  },
  {
    "name": "연희동",
    "address": "서울시 서대문구 가재울로4길 32",
    "category": "대신택배",
    "lat": 37.5752434787139,
    "lng": 126.923619920519
  },
  {
    "name": "서초",
    "address": "서울시 서초구 서초중앙로8길 88",
    "category": "대신택배",
    "lat": 37.4868568465573,
    "lng": 127.02035154736
  },
  {
    "name": "뚝섬",
    "address": "서울시 성동구 뚝섬로 448",
    "category": "대신택배",
    "lat": 37.5370961596405,
    "lng": 127.059804811367
  },
  {
    "name": "성북장위",
    "address": "서울시 성북구 장위동 305-91",
    "category": "대신택배",
    "lat": 37.6221192589935,
    "lng": 127.048611347444
  },
  {
    "name": "도봉",
    "address": "서울시 도봉구 도봉로180나길 56",
    "category": "대신택배",
    "lat": 37.683788034886,
    "lng": 127.050684707062
  },
  {
    "name": "가락시장",
    "address": "서울시 송파구 양재대로 932",
    "category": "대신택배",
    "lat": 37.4945376921828,
    "lng": 127.108713599026
  },
  {
    "name": "신정동",
    "address": "서울시 양천구 신정중앙로 26",
    "category": "대신택배",
    "lat": 37.5274211251705,
    "lng": 126.854627378674
  },
  {
    "name": "영등포양평",
    "address": "서울시 영등포구 양평로22사길 3",
    "category": "대신택배",
    "lat": 37.5406488088648,
    "lng": 126.895517298504
  },
  {
    "name": "영등포영시",
    "address": "서울시 영등포구 영등포로64길 6",
    "category": "대신택배",
    "lat": 37.5145551465045,
    "lng": 126.916931428399
  },
  {
    "name": "당산동",
    "address": "서울 영등포구 문래로 55",
    "category": "대신택배",
    "lat": 37.5204279064529,
    "lng": 126.887847771379
  },
  {
    "name": "대림동",
    "address": "서울시 영등포구 가마산로 322",
    "category": "대신택배",
    "lat": 37.4983051717246,
    "lng": 126.895391200124
  },
  {
    "name": "용산전자",
    "address": "서울시 용산구 청파로20길 13",
    "category": "대신택배",
    "lat": 37.5331212118248,
    "lng": 126.967022405224
  },
  {
    "name": "은평수색",
    "address": "서울시 은평구 수색로24길 24",
    "category": "대신택배",
    "lat": 37.5913881917287,
    "lng": 126.885227606161
  },
  {
    "name": "종로5",
    "address": "서울시 종로구 율골로14길 21",
    "category": "대신택배",
    "lat": 37.57513,
    "lng": 127.00317
  },
  {
    "name": "종로원남",
    "address": "서울시 종로구 김상옥로 13",
    "category": "대신택배",
    "lat": 37.5734631313,
    "lng": 126.999050586431
  },
  {
    "name": "세운상가",
    "address": "서울시 중구 청계천로160",
    "category": "대신택배",
    "lat": 37.5679798569884,
    "lng": 126.995365114169
  },
  {
    "name": "청계3",
    "address": "서울특별시 중구 충무로 63",
    "category": "대신택배",
    "lat": 37.5669997761801,
    "lng": 126.992336074975
  },
  {
    "name": "왕십리",
    "address": "서울시 성동구 고산자로 290-49",
    "category": "대신택배",
    "lat": 37.5656448535525,
    "lng": 127.036846117975
  },
  {
    "name": "을지5",
    "address": "서울시 중구 을지로42길 25",
    "category": "대신택배",
    "lat": 37.565107975865,
    "lng": 127.005700485839
  },
  {
    "name": "방산",
    "address": "서울시 중구 동호로37길 33",
    "category": "대신택배",
    "lat": 37.5684468439269,
    "lng": 126.999951779772
  },
  {
    "name": "서부",
    "address": "서울특별시 용산구 청파로 320",
    "category": "대신택배",
    "lat": 37.5480737283423,
    "lng": 126.970316534229
  },
  {
    "name": "망우리",
    "address": "서울시 중랑구 용마산로142길 13",
    "category": "대신택배",
    "lat": 37.6146695643704,
    "lng": 127.102259306032
  },
  {
    "name": "길동",
    "address": "서울특별시 강동구 천중로 178",
    "category": "대신택배",
    "lat": 37.5406738171663,
    "lng": 127.139800431717
  },
  {
    "name": "종로장사",
    "address": "서울특별시 종로구 청계천로 149-1",
    "category": "대신택배",
    "lat": 37.5687789054619,
    "lng": 126.994342361143
  },
  {
    "name": "강서가양",
    "address": "강서구 화곡로66길 181",
    "category": "대신택배",
    "lat": 37.5543912115204,
    "lng": 126.862705937636
  },
  {
    "name": "남구로",
    "address": "서울 구로구 구로동로43길 24",
    "category": "대신택배",
    "lat": 37.49609,
    "lng": 126.88108
  },
  {
    "name": "오금동",
    "address": "송파구 마천로21길 4",
    "category": "대신택배",
    "lat": 37.5040716346555,
    "lng": 127.138010158766
  },
  {
    "name": "삼성동",
    "address": "서울특별시 강남구 봉은사로112길 27",
    "category": "대신택배",
    "lat": 37.5131517467548,
    "lng": 127.065106707872
  },
  {
    "name": "방배동",
    "address": "서초구 동광로12가길 3",
    "category": "대신택배",
    "lat": 37.487397942989,
    "lng": 126.984697813609
  },
  {
    "name": "동작2",
    "address": "서울 동작구 동작대로13길 14",
    "category": "대신택배",
    "lat": 37.4818442757108,
    "lng": 126.9802367184
  },
  {
    "name": "강릉중앙",
    "address": "강릉시 강변로534번길 65",
    "category": "대신택배",
    "lat": 37.7662780476857,
    "lng": 128.923824182247
  },
  {
    "name": "주문진연곡",
    "address": "강릉시 연곡면 연주로 141",
    "category": "대신택배",
    "lat": 37.8688269607864,
    "lng": 128.837636987883
  },
  {
    "name": "강릉옥계",
    "address": "강원특별자치도 강릉시 옥계면 옥계로 1022",
    "category": "대신택배",
    "lat": 37.6069389202308,
    "lng": 129.031564652029
  },
  {
    "name": "강릉포남",
    "address": "강원 강릉시 가작로256",
    "category": "대신택배",
    "lat": 37.7700596007408,
    "lng": 128.903125846505
  },
  {
    "name": "강릉교동",
    "address": "강원도 강릉시 율곡로 3077(교동)",
    "category": "대신택배",
    "lat": 37.7759164491993,
    "lng": 128.887182160552
  },
  {
    "name": "동해묵호",
    "address": "동해시 발한로 258-1",
    "category": "대신택배",
    "lat": 37.5517883732111,
    "lng": 129.106156107506
  },
  {
    "name": "동해북평",
    "address": "강원 동해시 공단7로 1",
    "category": "대신택배",
    "lat": 37.4729069397569,
    "lng": 129.136768271245
  },
  {
    "name": "동해효가",
    "address": "동해시 효가로 42",
    "category": "대신택배",
    "lat": 37.4958152596156,
    "lng": 129.105831953591
  },
  {
    "name": "삼척남양",
    "address": "삼척시 봉황로 91-10",
    "category": "대신택배",
    "lat": 37.4462923773776,
    "lng": 129.171303274495
  },
  {
    "name": "삼척호산",
    "address": "강원도 삼척시 원덕읍 호산2길 70-13",
    "category": "대신택배",
    "lat": 37.1751514918727,
    "lng": 129.335222390532
  },
  {
    "name": "속초노학",
    "address": "강원도 속초시 도리원길 71",
    "category": "대신택배",
    "lat": 38.1960242062581,
    "lng": 128.566419237755
  },
  {
    "name": "속초장사",
    "address": "속초시 사진길 4",
    "category": "대신택배",
    "lat": 38.2229986490168,
    "lng": 128.588700471334
  },
  {
    "name": "남원주",
    "address": "원주시 갈촌길 104-54",
    "category": "대신택배",
    "lat": 37.3106159105247,
    "lng": 127.958881793273
  },
  {
    "name": "원주우산",
    "address": "강원도 원주시 우산동 405-34",
    "category": "대신택배",
    "lat": 37.3813721133881,
    "lng": 127.939860042628
  },
  {
    "name": "원주단계",
    "address": "원주시 무상길 22",
    "category": "대신택배",
    "lat": 37.3582650349682,
    "lng": 127.927270495399
  },
  {
    "name": "원주문막",
    "address": "원주시 문막읍 동화골길 9",
    "category": "대신택배",
    "lat": 37.3251802358751,
    "lng": 127.843775687998
  },
  {
    "name": "원주소초",
    "address": "원주시 소초면 치악로 2360",
    "category": "대신택배",
    "lat": 37.3852867098382,
    "lng": 127.977635255649
  },
  {
    "name": "춘천중앙",
    "address": "춘천시 명동길 51-1",
    "category": "대신택배",
    "lat": 37.8766756326988,
    "lng": 127.724338854319
  },
  {
    "name": "남춘천",
    "address": "춘천시 퇴계공단1길 44",
    "category": "대신택배",
    "lat": 37.8457357128659,
    "lng": 127.738121186212
  },
  {
    "name": "춘천후평",
    "address": "춘천시 후석로462번길 23",
    "category": "대신택배",
    "lat": 37.8906901489862,
    "lng": 127.743853057933
  },
  {
    "name": "태백상장",
    "address": "태백시 서학로 975",
    "category": "대신택배",
    "lat": 37.1573792775147,
    "lng": 128.972067035291
  },
  {
    "name": "거진",
    "address": "고성군 거진읍 벌평로 50",
    "category": "대신택배",
    "lat": 38.4477783676386,
    "lng": 128.45124246325
  },
  {
    "name": "간성",
    "address": "고성군 간성읍 간성북로 70",
    "category": "대신택배",
    "lat": 38.3840065174226,
    "lng": 128.475052230823
  },
  {
    "name": "양구읍",
    "address": "양구군 양구읍 택지길 88-31",
    "category": "대신택배",
    "lat": 38.1057121684757,
    "lng": 127.98645057927
  },
  {
    "name": "강원양양",
    "address": "강원도 양양군 양양읍 북문길35-4",
    "category": "대신택배",
    "lat": 38.0798771377038,
    "lng": 128.621542639761
  },
  {
    "name": "영월",
    "address": "영월군 영월읍 봉래산로 39-6",
    "category": "대신택배",
    "lat": 37.1868520998271,
    "lng": 128.47217026624
  },
  {
    "name": "인제읍",
    "address": "인제군 인제읍 인제로120",
    "category": "대신택배",
    "lat": 38.0645115473009,
    "lng": 128.1658167646
  },
  {
    "name": "인제원통",
    "address": "인제군 북면 원통로 233",
    "category": "대신택배",
    "lat": 38.1247662445564,
    "lng": 128.209186637535
  },
  {
    "name": "정선",
    "address": "정선군 정선읍 애산로 165",
    "category": "대신택배",
    "lat": 37.3855976956659,
    "lng": 128.672890201219
  },
  {
    "name": "사북",
    "address": "정선군 고한읍 고한로228",
    "category": "대신택배",
    "lat": 37.1962051316719,
    "lng": 128.858702359984
  },
  {
    "name": "철원김화",
    "address": "철원군 김화읍 김화로 627",
    "category": "대신택배",
    "lat": 38.2476860476269,
    "lng": 127.42060349181
  },
  {
    "name": "철원동송",
    "address": "강원도 철원군 동송읍 이평리 240-9",
    "category": "대신택배",
    "lat": 38.1915291285311,
    "lng": 127.228660837198
  },
  {
    "name": "평창읍",
    "address": "평창군 평창읍 백오로 201",
    "category": "대신택배",
    "lat": 37.3677881818114,
    "lng": 128.401206337442
  },
  {
    "name": "평창봉평",
    "address": "평창군 용평면 경강로1419",
    "category": "대신택배",
    "lat": 37.5877605683163,
    "lng": 128.395720856077
  },
  {
    "name": "평창진부",
    "address": "평창군 진부면 진부중앙로 104",
    "category": "대신택배",
    "lat": 37.6400696160029,
    "lng": 128.561282282564
  },
  {
    "name": "평창횡계",
    "address": "강원도 평창군 대관령면 꽃밭양지길 38",
    "category": "대신택배",
    "lat": 37.6776053178893,
    "lng": 128.710022516244
  },
  {
    "name": "홍천",
    "address": "강원도 홍천군 북방면 홍천로182-6",
    "category": "대신택배",
    "lat": 37.6915483093785,
    "lng": 127.865570344465
  },
  {
    "name": "화천",
    "address": "강원도 화천군 화천읍 강변로 139",
    "category": "대신택배",
    "lat": 38.1101273035861,
    "lng": 127.708425036119
  },
  {
    "name": "횡성읍",
    "address": "횡성군 횡성읍 앞들동로20번길 17",
    "category": "대신택배",
    "lat": 37.485221445714,
    "lng": 127.986054091461
  },
  {
    "name": "태백삼수",
    "address": "강원도 태백시 태백로 694",
    "category": "대신택배",
    "lat": 37.1792216123634,
    "lng": 128.971460345974
  },
  {
    "name": "동신서울",
    "address": "안산시 상록구 도매시장로 20",
    "category": "대신택배",
    "lat": 37.3087017863851,
    "lng": 126.858232588769
  },
  {
    "name": "강릉노암",
    "address": "강원도 강릉시 남부로 267",
    "category": "대신택배",
    "lat": 37.7457142678635,
    "lng": 128.909412868494
  },
  {
    "name": "횡성둔내",
    "address": "강원특별자치도 횡성군 둔내면 경강로 4705",
    "category": "대신택배",
    "lat": 37.5166958891953,
    "lng": 128.212949472792
  },
  {
    "name": "원주봉산",
    "address": "강원도 원주시 번재길 82",
    "category": "대신택배",
    "lat": 37.3486001273057,
    "lng": 127.975169303148
  },
  {
    "name": "주문진교항",
    "address": "강원특별자치도 강릉시 주문진읍 매맥이아랫길 5",
    "category": "대신택배",
    "lat": 37.8766655287351,
    "lng": 128.82752657085
  },
  {
    "name": "동해단봉",
    "address": "강원특별자치도 동해시 동해대로 4697-1",
    "category": "대신택배",
    "lat": 37.4736740977418,
    "lng": 129.126681446355
  },
  {
    "name": "대치동",
    "address": "경기 과천시 죽바위로 31",
    "category": "대신택배",
    "lat": 37.4556833078995,
    "lng": 127.031514728446
  },
  {
    "name": "상일",
    "address": "경기 하남시 초일로 12",
    "category": "대신택배",
    "lat": 37.5415016880543,
    "lng": 127.175964164434
  },
  {
    "name": "문정동",
    "address": "경기도 하남시 감이남로 80",
    "category": "대신택배",
    "lat": 37.496981129769,
    "lng": 127.160176011729
  },
  {
    "name": "은평역촌",
    "address": "경기 고양시 덕양구 용두로 67",
    "category": "대신택배",
    "lat": 37.6224460806708,
    "lng": 126.888874332339
  },
  {
    "name": "시화서브",
    "address": "경기 시흥시 공단1대로 199",
    "category": "대신택배",
    "lat": 37.3388729934904,
    "lng": 126.724728342479
  },
  {
    "name": "파주서브",
    "address": "경기 파주시 통일로572번길 14",
    "category": "대신택배",
    "lat": 37.761035642953,
    "lng": 126.796650810398
  },
  {
    "name": "고양식사",
    "address": "경기 고양시 일산동구 고양대로1119번길 68",
    "category": "대신택배",
    "lat": 37.6652768432341,
    "lng": 126.81737106715
  },
  {
    "name": "일산대화",
    "address": "경기 고양시 일산서구 덕이로 104-26",
    "category": "대신택배",
    "lat": 37.6927092728153,
    "lng": 126.749902283738
  },
  {
    "name": "일산장항",
    "address": "경기 고양시 일산동구 노첨길 79",
    "category": "대신택배",
    "lat": 37.6380399765065,
    "lng": 126.777675931295
  },
  {
    "name": "고양벽제",
    "address": "경기도 고양시 덕양구 내유동300-16",
    "category": "대신택배",
    "lat": 37.7138088974327,
    "lng": 126.852073299568
  },
  {
    "name": "양재",
    "address": "경기 과천시 죽바위로 31",
    "category": "대신택배",
    "lat": 37.4556833078995,
    "lng": 127.031514728446
  },
  {
    "name": "광명",
    "address": "경기 광명시 목감로 26",
    "category": "대신택배",
    "lat": 37.4707261447392,
    "lng": 126.846143647604
  },
  {
    "name": "광명하안",
    "address": "경기 광명시 범안로 868-20",
    "category": "대신택배",
    "lat": 37.4505686546069,
    "lng": 126.866389550412
  },
  {
    "name": "경안",
    "address": "경기 광주시 파발로 145",
    "category": "대신택배",
    "lat": 37.4138507352588,
    "lng": 127.254611896816
  },
  {
    "name": "곤지암삼리",
    "address": "경기 광주시 곤지암읍 곤지암천로 119",
    "category": "대신택배",
    "lat": 37.3592998023654,
    "lng": 127.327307597072
  },
  {
    "name": "경기오포",
    "address": "경기 광주시 오포안로154-1",
    "category": "대신택배",
    "lat": 37.3551586736744,
    "lng": 127.206007579871
  },
  {
    "name": "경기태전",
    "address": "경기 광주시 고불로 109-9",
    "category": "대신택배",
    "lat": 37.3927992081501,
    "lng": 127.226130109444
  },
  {
    "name": "초월읍선동",
    "address": "경기 광주시 초월읍 산수로 232",
    "category": "대신택배",
    "lat": 37.3821404965607,
    "lng": 127.3165962058
  },
  {
    "name": "경기도척",
    "address": "경기 광주시 도척면 마도로 158",
    "category": "대신택배",
    "lat": 37.285553827766,
    "lng": 127.335152959443
  },
  {
    "name": "구리사노",
    "address": "경기 구리시 산마루로 226",
    "category": "대신택배",
    "lat": 37.6306511899789,
    "lng": 127.13551503081
  },
  {
    "name": "부곡터",
    "address": "경기 군포시 번영로 82",
    "category": "대신택배",
    "lat": 37.3309459272918,
    "lng": 126.93722666624
  },
  {
    "name": "군포당정",
    "address": "경기 군포시 고산로 146",
    "category": "대신택배",
    "lat": 37.3496464824776,
    "lng": 126.955113878028
  },
  {
    "name": "군포부곡",
    "address": "경기 군포시 번영로 82",
    "category": "대신택배",
    "lat": 37.3309459272918,
    "lng": 126.93722666624
  },
  {
    "name": "김포북변",
    "address": "경기도 김포시 금포로 1523",
    "category": "대신택배",
    "lat": 37.6678547490911,
    "lng": 126.672349069121
  },
  {
    "name": "김포양곡",
    "address": "경기 김포시 양촌읍 고음달로191번길 29",
    "category": "대신택배",
    "lat": 37.6192940434759,
    "lng": 126.611064886831
  },
  {
    "name": "김포고촌",
    "address": "경기 김포시 고촌면 장곡로52번길 7",
    "category": "대신택배",
    "lat": 37.6071520683818,
    "lng": 126.749921077705
  },
  {
    "name": "김포하성",
    "address": "경기 김포시 하성면 하성로 380",
    "category": "대신택배",
    "lat": 37.7090115262748,
    "lng": 126.637219524584
  },
  {
    "name": "김포대곶",
    "address": "경기 김포시 대곶면 대곶북로 30",
    "category": "대신택배",
    "lat": 37.6563383424598,
    "lng": 126.597389497747
  },
  {
    "name": "김포월곶",
    "address": "경기 김포시 월곶면 군하로 230-1",
    "category": "대신택배",
    "lat": 37.7141096747374,
    "lng": 126.557569407301
  },
  {
    "name": "김포학운",
    "address": "경기 김포시 대곶면 황금1로 303-1",
    "category": "대신택배",
    "lat": 37.6308599957844,
    "lng": 126.604870471105
  },
  {
    "name": "김포통진",
    "address": "경기 김포시 통진읍 서암로 202",
    "category": "대신택배",
    "lat": 37.7017632693003,
    "lng": 126.60472097546
  },
  {
    "name": "남양주마석",
    "address": "경기 남양주시 화도읍 수레로 1021",
    "category": "대신택배",
    "lat": 37.634277191828,
    "lng": 127.297036515512
  },
  {
    "name": "남양주덕소",
    "address": "경기 남양주시 와부읍 월문천로173번길 27",
    "category": "대신택배",
    "lat": 37.5943123141102,
    "lng": 127.228452243042
  },
  {
    "name": "남양주오남",
    "address": "경기 남양주시 오남읍 양지리244-16",
    "category": "대신택배",
    "lat": 37.7101371914678,
    "lng": 127.201055614221
  },
  {
    "name": "남양주진건",
    "address": "경기 남양주시 진건읍 고재로 22",
    "category": "대신택배",
    "lat": 37.6362909379884,
    "lng": 127.166275782039
  },
  {
    "name": "남양주별내",
    "address": "경기도 남양주시 식송1로 71",
    "category": "대신택배",
    "lat": 37.6552385767669,
    "lng": 127.11386983246
  },
  {
    "name": "동두천",
    "address": "경기도 동두천시 송내로39",
    "category": "대신택배",
    "lat": 37.8837193880982,
    "lng": 127.062481179301
  },
  {
    "name": "부천원미",
    "address": "경기도 부천시 길주로 356(중동)",
    "category": "대신택배",
    "lat": 37.5023584004506,
    "lng": 126.782100796234
  },
  {
    "name": "부천소사",
    "address": "경기도 부천시 경인로463번길 11",
    "category": "대신택배",
    "lat": 37.4827653075008,
    "lng": 126.806691120284
  },
  {
    "name": "부천삼정",
    "address": "경기도 부천시 오정구 내동153-1",
    "category": "대신택배",
    "lat": 37.5175635643407,
    "lng": 126.779682627947
  },
  {
    "name": "성남중원",
    "address": "성남시 중원구 마지로 434",
    "category": "대신택배",
    "lat": 37.4220008230683,
    "lng": 127.173784974573
  },
  {
    "name": "성남분당",
    "address": "성남시 분당구 이매로 150",
    "category": "대신택배",
    "lat": 37.3899668773468,
    "lng": 127.135239595844
  },
  {
    "name": "성남수정",
    "address": "성남시 수정구 사송로46번길 10",
    "category": "대신택배",
    "lat": 37.4158050492735,
    "lng": 127.113417112397
  },
  {
    "name": "수원인계",
    "address": "경기도 수원시 팔달구 인계동1122-5",
    "category": "대신택배",
    "lat": 37.2618516551053,
    "lng": 127.034931990489
  },
  {
    "name": "수원고색",
    "address": "경기도 수원시 권선구 오목천로121-2",
    "category": "대신택배",
    "lat": 37.244013770364,
    "lng": 126.973747054219
  },
  {
    "name": "수원권선",
    "address": "수원시 권선구 세지로102번길 45",
    "category": "대신택배",
    "lat": 37.260203898021,
    "lng": 127.021377237213
  },
  {
    "name": "시흥신천",
    "address": "경기도 시흥시 찬우물1길 33",
    "category": "대신택배",
    "lat": 37.4262275271998,
    "lng": 126.79424457049
  },
  {
    "name": "동시화",
    "address": "경기도 시흥시 공단1대로 199",
    "category": "대신택배",
    "lat": 37.3388729934904,
    "lng": 126.724728342479
  },
  {
    "name": "서시화",
    "address": "시흥시 옥구천동로 118",
    "category": "대신택배",
    "lat": 37.3360735705567,
    "lng": 126.711263069129
  },
  {
    "name": "시흥물왕",
    "address": "시흥시 동서로707번길 49",
    "category": "대신택배",
    "lat": 37.3885622954981,
    "lng": 126.828076743227
  },
  {
    "name": "시화철강",
    "address": "경기도 시흥시 오이도로 21",
    "category": "대신택배",
    "lat": 37.3451349895581,
    "lng": 126.700735199234
  },
  {
    "name": "안산원곡",
    "address": "안산시 단원구 삼일로 156",
    "category": "대신택배",
    "lat": 37.3343163081701,
    "lng": 126.795470126388
  },
  {
    "name": "안산본오",
    "address": "안산시 상록구 고목로2길 2",
    "category": "대신택배",
    "lat": 37.2824511188287,
    "lng": 126.857742721784
  },
  {
    "name": "안산원시",
    "address": "안산시 단원구 중앙대로 196",
    "category": "대신택배",
    "lat": 37.3330149591186,
    "lng": 126.763472627533
  },
  {
    "name": "안산월피",
    "address": "안산시 상록구 안산공고로 19",
    "category": "대신택배",
    "lat": 37.3335448371028,
    "lng": 126.859708234987
  },
  {
    "name": "시화성곡",
    "address": "안산시 단원구 번영로 123 606",
    "category": "대신택배",
    "lat": 37.32084,
    "lng": 126.73689
  },
  {
    "name": "안산유통",
    "address": "안산시 단원구 산단로 348 E2동 214호",
    "category": "대신택배",
    "lat": 37.3264448312217,
    "lng": 126.786401750079
  },
  {
    "name": "대부도",
    "address": "안산시 단원구 대선로 281-4",
    "category": "대신택배",
    "lat": 37.2485197993376,
    "lng": 126.577272813374
  },
  {
    "name": "안성도기",
    "address": "안성시 안성맞춤대로 937",
    "category": "대신택배",
    "lat": 36.9975657058978,
    "lng": 127.269477701789
  },
  {
    "name": "안성죽산",
    "address": "안성시 죽산면 죽산초교길 77",
    "category": "대신택배",
    "lat": 37.0793337858699,
    "lng": 127.423925245758
  },
  {
    "name": "안성공도",
    "address": "경기도 안성시 공도읍 만가대길 11",
    "category": "대신택배",
    "lat": 37.0061679681508,
    "lng": 127.182186696057
  },
  {
    "name": "안성미양",
    "address": "경기 안성시 미양면 구수길 9",
    "category": "대신택배",
    "lat": 36.973665173893,
    "lng": 127.256694214286
  },
  {
    "name": "안성가천",
    "address": "안성시 원곡면 황새울길 8",
    "category": "대신택배",
    "lat": 37.0417031899847,
    "lng": 127.143767421534
  },
  {
    "name": "안성서운",
    "address": "안성시 서운면 신촌양동길 33",
    "category": "대신택배",
    "lat": 36.9426052741101,
    "lng": 127.257276229647
  },
  {
    "name": "안양박달",
    "address": "안양시 만안구 삼봉로 14",
    "category": "대신택배",
    "lat": 37.4015791271647,
    "lng": 126.904991546454
  },
  {
    "name": "안양관양",
    "address": "안양시 동안구 시민대로383번길 29",
    "category": "대신택배",
    "lat": 37.3978033991736,
    "lng": 126.972454712245
  },
  {
    "name": "안양호계1",
    "address": "안양시 동안구 엘에스로 92 국제유통단지디오벨리 139호 B동",
    "category": "대신택배",
    "lat": 37.37161072301,
    "lng": 126.951872629481
  },
  {
    "name": "볼보물류",
    "address": "안양시 동안구 엘에스로 92 국제유통단지디오벨리 138호",
    "category": "대신택배",
    "lat": 37.37161072301,
    "lng": 126.951872629481
  },
  {
    "name": "양주광적",
    "address": "양주시 광적면 부흥로 882번길 10",
    "category": "대신택배",
    "lat": 37.8137588917884,
    "lng": 126.98882653123
  },
  {
    "name": "양주덕정",
    "address": "양주시 은현면 평화로1889번길 46-8",
    "category": "대신택배",
    "lat": 37.8578999693767,
    "lng": 127.052352981063
  },
  {
    "name": "양주남면",
    "address": "경기 양주시 남면 휴암로284번길 463",
    "category": "대신택배",
    "lat": 37.8755535497875,
    "lng": 126.9793488752
  },
  {
    "name": "오산누읍",
    "address": "경기도 오산시 발안로1241-14",
    "category": "대신택배",
    "lat": 37.138193446495,
    "lng": 127.03527223987
  },
  {
    "name": "용인중앙",
    "address": "용인시 금학로349번길 2",
    "category": "대신택배",
    "lat": 37.237379411976,
    "lng": 127.202783479567
  },
  {
    "name": "용인수지",
    "address": "용인시 수지구 동천로 217",
    "category": "대신택배",
    "lat": 37.3382052537653,
    "lng": 127.080368881552
  },
  {
    "name": "용인백암",
    "address": "용인시 처인구 백암면 백암로185번길 5",
    "category": "대신택배",
    "lat": 37.1629819987808,
    "lng": 127.375942305551
  },
  {
    "name": "용인신갈",
    "address": "경기도 용인시 기흥구 용구대로 2143-2",
    "category": "대신택배",
    "lat": 37.2792193727475,
    "lng": 127.104462586862
  },
  {
    "name": "용인양지",
    "address": "경기도 용인시 처인구 양지면 양지로 17",
    "category": "대신택배",
    "lat": 37.2294917104163,
    "lng": 127.272536585086
  },
  {
    "name": "용인이동",
    "address": "용인시 처인구 이동면 화산로 6",
    "category": "대신택배",
    "lat": 37.1451614165298,
    "lng": 127.202330253509
  },
  {
    "name": "용인모현",
    "address": "용인시 처인구 모현읍 문현로307번길 6-2",
    "category": "대신택배",
    "lat": 37.3380397195811,
    "lng": 127.243154441392
  },
  {
    "name": "의왕오전",
    "address": "의왕시 맑은내길 80",
    "category": "대신택배",
    "lat": 37.3564960926276,
    "lng": 126.964353160784
  },
  {
    "name": "의정부신곡",
    "address": "의정부시 추동로108번길 61",
    "category": "대신택배",
    "lat": 37.7461310798257,
    "lng": 127.068144116625
  },
  {
    "name": "의정부가능",
    "address": "경기도 의정부시 체육로135번길 67",
    "category": "대신택배",
    "lat": 37.7578621353819,
    "lng": 127.020375855989
  },
  {
    "name": "이천창전",
    "address": "이천시 경충대로 2484",
    "category": "대신택배",
    "lat": 37.2713349891775,
    "lng": 127.455717298022
  },
  {
    "name": "장호원",
    "address": "이천시 장호원읍 장감로49번길 31",
    "category": "대신택배",
    "lat": 37.1180237799909,
    "lng": 127.627754945396
  },
  {
    "name": "이천부발",
    "address": "경기도 이천시 중부대로 1193-26",
    "category": "대신택배",
    "lat": 37.2578257448025,
    "lng": 127.456895497406
  },
  {
    "name": "이천마장",
    "address": "이천시 호법면 프리미엄아울렛로 323",
    "category": "대신택배",
    "lat": 37.228413881035,
    "lng": 127.402936593998
  },
  {
    "name": "이천율면",
    "address": "이천시 설성면 진상미로167번길 12",
    "category": "대신택배",
    "lat": 37.1043842457336,
    "lng": 127.5485471904
  },
  {
    "name": "파주법원",
    "address": "경기도 파주시 파주읍 우계로 183",
    "category": "대신택배",
    "lat": 37.842142288612,
    "lng": 126.812176356626
  },
  {
    "name": "파주금촌",
    "address": "파주시 통일로572번길 14",
    "category": "대신택배",
    "lat": 37.761035642953,
    "lng": 126.796650810398
  },
  {
    "name": "파주문산",
    "address": "파주시 탄현면 월롱산로 536",
    "category": "대신택배",
    "lat": 37.8203727329195,
    "lng": 126.744906490729
  },
  {
    "name": "파주교하",
    "address": "경기도 파주시 신촌3로 21",
    "category": "대신택배",
    "lat": 37.7299710699652,
    "lng": 126.692959053792
  },
  {
    "name": "파주광탄",
    "address": "파주시 광탄면 혜음로 660번길",
    "category": "대신택배",
    "lat": 37.7479406506896,
    "lng": 126.869008005432
  },
  {
    "name": "파주조리",
    "address": "경기 파주시 조리읍 정문로42",
    "category": "대신택배",
    "lat": 37.7677100004194,
    "lng": 126.815320996643
  },
  {
    "name": "평택신대",
    "address": "평택시 화촌1길 11-8",
    "category": "대신택배",
    "lat": 36.9927932956051,
    "lng": 127.075533408719
  },
  {
    "name": "평택송탄",
    "address": "평택시 지산천로 32",
    "category": "대신택배",
    "lat": 37.0823869501229,
    "lng": 127.063578756463
  },
  {
    "name": "평택안중",
    "address": "평택시 현덕면 운정길 59",
    "category": "대신택배",
    "lat": 36.9817299259657,
    "lng": 126.890335804971
  },
  {
    "name": "평택팽성",
    "address": "평택시 팽성읍 추팔산단로 33-4",
    "category": "대신택배",
    "lat": 36.9625186722617,
    "lng": 127.072415750316
  },
  {
    "name": "평택현곡",
    "address": "평택시 청북읍 청북중앙로 34",
    "category": "대신택배",
    "lat": 37.0408579208048,
    "lng": 126.929674160255
  },
  {
    "name": "평택포승",
    "address": "평택시 포승읍 포승공단로 275",
    "category": "대신택배",
    "lat": 36.9880569323304,
    "lng": 126.861961639541
  },
  {
    "name": "평택서탄",
    "address": "평택시 서탄면 서탄1로 139",
    "category": "대신택배",
    "lat": 37.1077469344828,
    "lng": 127.024229372519
  },
  {
    "name": "평택진위",
    "address": "평택시 진위면 진위서로 54",
    "category": "대신택배",
    "lat": 37.1080286691531,
    "lng": 127.068842877505
  },
  {
    "name": "포천신읍",
    "address": "경기도 포천시 군내면 풍류산길 11",
    "category": "대신택배",
    "lat": 37.8789382038924,
    "lng": 127.21531631536
  },
  {
    "name": "포천운천",
    "address": "포천시 영북면 영북로 128",
    "category": "대신택배",
    "lat": 38.0856725035968,
    "lng": 127.275118176623
  },
  {
    "name": "포천소흘",
    "address": "포천시 소흘읍 소흘로 263",
    "category": "대신택배",
    "lat": 37.8179735308266,
    "lng": 127.157205728264
  },
  {
    "name": "포천가산",
    "address": "경기도 포천시 가산면 마정로 24",
    "category": "대신택배",
    "lat": 37.8411926193023,
    "lng": 127.180431688946
  },
  {
    "name": "포천내촌",
    "address": "포천시 내촌면 내촌로 123",
    "category": "대신택배",
    "lat": 37.7899343102757,
    "lng": 127.229803724668
  },
  {
    "name": "하남덕풍",
    "address": "경기 하남시 이성로 137",
    "category": "대신택배",
    "lat": 37.5368346423429,
    "lng": 127.184614000535
  },
  {
    "name": "하남천현",
    "address": "하남시 검단산로143",
    "category": "대신택배",
    "lat": 37.5280377748818,
    "lng": 127.225858367379
  },
  {
    "name": "방이동",
    "address": "경기도 하남시 서하남로48번길 57",
    "category": "대신택배",
    "lat": 37.5141948290994,
    "lng": 127.15128347733
  },
  {
    "name": "화성발안",
    "address": "경기도 화성시 향남읍 배터길97",
    "category": "대신택배",
    "lat": 37.1386087893021,
    "lng": 126.901437875718
  },
  {
    "name": "화성수촌",
    "address": "화성시 장안면 기린골길 3",
    "category": "대신택배",
    "lat": 37.0866956345555,
    "lng": 126.837554137219
  },
  {
    "name": "화성마도",
    "address": "화성시 마도면 청원로274번길 1",
    "category": "대신택배",
    "lat": 37.1785775137411,
    "lng": 126.783434556244
  },
  {
    "name": "화성봉담",
    "address": "화성시 봉담읍 주석로 1166",
    "category": "대신택배",
    "lat": 37.1998023694455,
    "lng": 126.939154903258
  },
  {
    "name": "화성병점",
    "address": "경기도 화성시 만년로 988",
    "category": "대신택배",
    "lat": 37.1979191036247,
    "lng": 127.006777056528
  },
  {
    "name": "화성정남",
    "address": "화성시 정남면 문학로 94",
    "category": "대신택배",
    "lat": 37.1509074987157,
    "lng": 126.974168759428
  },
  {
    "name": "화성팔탄",
    "address": "화성시 팔탄면 푸른들판로 567번길 15",
    "category": "대신택배",
    "lat": 37.1590834638699,
    "lng": 126.896668879364
  },
  {
    "name": "화성동탄",
    "address": "경기도 화성시 금곡로 228",
    "category": "대신택배",
    "lat": 37.1806023892342,
    "lng": 127.07870725071
  },
  {
    "name": "화성대양",
    "address": "화성시 양감면 은행나무로 377-3",
    "category": "대신택배",
    "lat": 37.0915119534722,
    "lng": 126.941068707978
  },
  {
    "name": "화성석포",
    "address": "화성시 장안면 석포리681-20",
    "category": "대신택배",
    "lat": 37.1400789677989,
    "lng": 126.839715291018
  },
  {
    "name": "화성사강",
    "address": "화성시 송산면 송산포도로 201-5",
    "category": "대신택배",
    "lat": 37.2153952930714,
    "lng": 126.727068998619
  },
  {
    "name": "화성구문천",
    "address": "화성시 향남읍 하길리870-1",
    "category": "대신택배",
    "lat": 37.0906336806169,
    "lng": 126.91999227858
  },
  {
    "name": "화성북양",
    "address": "화성시 남양읍 주석로117번길 3",
    "category": "대신택배",
    "lat": 37.2179229930992,
    "lng": 126.84415127416
  },
  {
    "name": "가평읍",
    "address": "경기도 가평군 가평읍 가화로 271",
    "category": "대신택배",
    "lat": 37.842315463535,
    "lng": 127.504903285656
  },
  {
    "name": "양평읍",
    "address": "경기도 양평군 중앙로111번길 15",
    "category": "대신택배",
    "lat": 37.4947469631148,
    "lng": 127.501509444834
  },
  {
    "name": "양평용문",
    "address": "경기도 양평군 용문면 용문로 169-1",
    "category": "대신택배",
    "lat": 37.4818021526377,
    "lng": 127.575645116591
  },
  {
    "name": "여주상동",
    "address": "경기도 여주시 상동36-6",
    "category": "대신택배",
    "lat": 37.2915486468478,
    "lng": 127.652329637174
  },
  {
    "name": "여주가남",
    "address": "경기도 여주시 가남읍 대신리 15-6",
    "category": "대신택배",
    "lat": 37.1951738525077,
    "lng": 127.53998072186
  },
  {
    "name": "연천전곡",
    "address": "경기도 연천군 전곡읍 평화로848번길 82",
    "category": "대신택배",
    "lat": 38.0450742290974,
    "lng": 127.071747946378
  },
  {
    "name": "철원갈말",
    "address": "경기도 포천시 영북면 영북로 128",
    "category": "대신택배",
    "lat": 38.0856725035968,
    "lng": 127.275118176623
  },
  {
    "name": "크레텍서울",
    "address": "경기도 군포시 번영로 82",
    "category": "대신택배",
    "lat": 37.3309459272918,
    "lng": 126.93722666624
  },
  {
    "name": "평택고덕",
    "address": "경기 평택시 지제로 65-12",
    "category": "대신택배",
    "lat": 37.0193241296037,
    "lng": 127.06415557673
  },
  {
    "name": "양주고읍",
    "address": "양주시 고덕로355번길 28-43",
    "category": "대신택배",
    "lat": 37.8047356271083,
    "lng": 127.081602254182
  },
  {
    "name": "수원원천",
    "address": "경기도 수원시 영통구 중부대로462번길 33",
    "category": "대신택배",
    "lat": 37.2674042531421,
    "lng": 127.064667470673
  },
  {
    "name": "화성반월",
    "address": "경기도 화성시 동탄지성로306번길 62-6",
    "category": "대신택배",
    "lat": 37.2257748909042,
    "lng": 127.051262451932
  },
  {
    "name": "파주출판",
    "address": "경기도 파주시 파주읍 우계로 183",
    "category": "대신택배",
    "lat": 37.842142288612,
    "lng": 126.812176356626
  },
  {
    "name": "화성동오",
    "address": "경기 화성시 발안로464번길 25-15",
    "category": "대신택배",
    "lat": 37.1294348476857,
    "lng": 126.958839110603
  },
  {
    "name": "고양설문",
    "address": "경기도 고양시 일산동구 문원길 27",
    "category": "대신택배",
    "lat": 37.7094512832171,
    "lng": 126.820259154864
  },
  {
    "name": "시화엠티비",
    "address": "경기도 안산시 단원구 시화호수로841번길 28-16",
    "category": "대신택배",
    "lat": 37.2975737971363,
    "lng": 126.761696856637
  },
  {
    "name": "남양주일패",
    "address": "경기도 남양주시 일패로 33",
    "category": "대신택배",
    "lat": 37.6193659172936,
    "lng": 127.17825354182
  },
  {
    "name": "평택항",
    "address": "경기도 평택시 포승읍 하만호길 114",
    "category": "대신택배",
    "lat": 36.9523070727805,
    "lng": 126.8596677387
  },
  {
    "name": "평택청룡",
    "address": "경기도 평택시 청룡길 159",
    "category": "대신택배",
    "lat": 37.0265523427645,
    "lng": 127.126488733964
  },
  {
    "name": "화성매송",
    "address": "경기도 화성시 매송면 송숙로59",
    "category": "대신택배",
    "lat": 37.2705633847567,
    "lng": 126.892555077787
  },
  {
    "name": "화성월문",
    "address": "경기도 화성시 팔탄면 버들로1387",
    "category": "대신택배",
    "lat": 37.125932488893,
    "lng": 126.859080465902
  },
  {
    "name": "남양주화도",
    "address": "경기도 남양주시 화도읍 수레로 1021",
    "category": "대신택배",
    "lat": 37.634277191828,
    "lng": 127.297036515512
  },
  {
    "name": "포천금현",
    "address": "경기도 포천시 가산면 한성길 8",
    "category": "대신택배",
    "lat": 37.8134719696333,
    "lng": 127.174801517972
  },
  {
    "name": "화성비봉",
    "address": "화성시 비봉면 자안리 682",
    "category": "대신택배",
    "lat": 37.2004518521715,
    "lng": 126.875130387873
  },
  {
    "name": "서울지점",
    "address": "경기도 군포시 번영로 82",
    "category": "대신택배",
    "lat": 37.3309459272918,
    "lng": 126.93722666624
  },
  {
    "name": "안성대덕",
    "address": "안성시 대덕면 만세로 186-4",
    "category": "대신택배",
    "lat": 37.033820399718,
    "lng": 127.229941906003
  },
  {
    "name": "에스에스",
    "address": "경기도 수원시 권선구 오목천로121-2",
    "category": "대신택배",
    "lat": 37.244013770364,
    "lng": 126.973747054219
  },
  {
    "name": "용인기흥",
    "address": "용인시 기흥구 고매동703-1",
    "category": "대신택배",
    "lat": 37.2232360715522,
    "lng": 127.094952511194
  },
  {
    "name": "부천내동",
    "address": "경기 부천시 내동274-5",
    "category": "대신택배",
    "lat": 37.5205709235369,
    "lng": 126.784318171875
  },
  {
    "name": "화성음양",
    "address": "경기도 화성시 정남면 정남동로168",
    "category": "대신택배",
    "lat": 37.1406132999963,
    "lng": 127.021502238238
  },
  {
    "name": "곤지암만선",
    "address": "광주시 곤지암읍 만선리200-7",
    "category": "대신택배",
    "lat": 37.3641591039133,
    "lng": 127.404547568538
  },
  {
    "name": "안산초지",
    "address": "경기도 안산시 단원구 동산로41",
    "category": "대신택배",
    "lat": 37.3132224694921,
    "lng": 126.7946549346
  },
  {
    "name": "시흥계수",
    "address": "경기도 시흥시 범안로 371",
    "category": "대신택배",
    "lat": 37.4504532357455,
    "lng": 126.818474499583
  },
  {
    "name": "초월읍지월",
    "address": "초월읍 산수로627-11",
    "category": "대신택배",
    "lat": 37.4164362454029,
    "lng": 127.30478875578
  },
  {
    "name": "화성주곡",
    "address": "화성시 우정읍 쌍봉로338-1",
    "category": "대신택배",
    "lat": 37.1068206958229,
    "lng": 126.807350216013
  },
  {
    "name": "화성유통",
    "address": "경기도 화성시 팔탄면 구장길 99",
    "category": "대신택배",
    "lat": 37.1664242330008,
    "lng": 126.897436662431
  },
  {
    "name": "안양호계2",
    "address": "안양시 동안구 엘에스로144번길 96",
    "category": "대신택배",
    "lat": 37.3776,
    "lng": 126.94559
  },
  {
    "name": "오산삼미",
    "address": "경기도 오산시 외삼미로 50-25",
    "category": "대신택배",
    "lat": 37.1904092295381,
    "lng": 127.0576571063
  },
  {
    "name": "화성신남",
    "address": "경기도 화성시 남양읍 남양로 437-2",
    "category": "대신택배",
    "lat": 37.1793653973771,
    "lng": 126.816938646102
  },
  {
    "name": "일산성석",
    "address": "경기도 고양시 일산동구 성현로 155-14",
    "category": "대신택배",
    "lat": 37.7095159979929,
    "lng": 126.803503100552
  },
  {
    "name": "하남초이",
    "address": "경기도 하남시 초광로 101",
    "category": "대신택배",
    "lat": 37.5297222765532,
    "lng": 127.172984813942
  },
  {
    "name": "김포서학운",
    "address": "경기도 김포시 양촌읍 학운산단1로 44",
    "category": "대신택배",
    "lat": 37.6030215334156,
    "lng": 126.58780411802
  },
  {
    "name": "김포대능",
    "address": "경기도 김포시 대곶면 수남로22번길 183",
    "category": "대신택배",
    "lat": 37.6336277168171,
    "lng": 126.582170182471
  },
  {
    "name": "시흥매화",
    "address": "경기도 시흥시 수인로3077번길 16",
    "category": "대신택배",
    "lat": 37.4292161327075,
    "lng": 126.811722299682
  },
  {
    "name": "화성서신",
    "address": "경기도 화성시 서신면 은쟁이길 7",
    "category": "대신택배",
    "lat": 37.1892062081851,
    "lng": 126.693147648656
  },
  {
    "name": "화성와우",
    "address": "화성시 봉담읍 최루백로412-6",
    "category": "대신택배",
    "lat": 37.1992894337626,
    "lng": 126.978805982606
  },
  {
    "name": "남양주진접",
    "address": "남양주시 진접읍 금강로1857",
    "category": "대신택배",
    "lat": 37.750109640761,
    "lng": 127.209720639582
  },
  {
    "name": "청평",
    "address": "가평군 청평면 경춘로874",
    "category": "대신택배",
    "lat": 37.741340080006,
    "lng": 127.423540468585
  },
  {
    "name": "수원장안",
    "address": "수원시 장안구 장안로346번길 4",
    "category": "대신택배",
    "lat": 37.3123607003191,
    "lng": 126.988228039533
  },
  {
    "name": "군포물류",
    "address": "군포시 번영로 82",
    "category": "대신택배",
    "lat": 37.3309459272918,
    "lng": 126.93722666624
  },
  {
    "name": "의왕이동",
    "address": "경기도 의왕시 이동 204-49",
    "category": "대신택배",
    "lat": 37.3291067263006,
    "lng": 126.952019582583
  },
  {
    "name": "오텍캐리어",
    "address": "화성시 매송면 송숙로59",
    "category": "대신택배",
    "lat": 37.2705633847567,
    "lng": 126.892555077787
  },
  {
    "name": "여주점동",
    "address": "경기도 여주시 점동면 장여로 1417",
    "category": "대신택배",
    "lat": 37.2262051741216,
    "lng": 127.663325945837
  },
  {
    "name": "화성괘랑",
    "address": "경기도 화성시 정남면 괘랑2길 12",
    "category": "대신택배",
    "lat": 37.1839808061392,
    "lng": 126.993330161358
  },
  {
    "name": "화성엘지",
    "address": "경기도 화성시 매송면 송숙로 59",
    "category": "대신택배",
    "lat": 37.2705633847567,
    "lng": 126.892555077787
  },
  {
    "name": "과천갈현",
    "address": "경기도 과천시 재경길 115",
    "category": "대신택배",
    "lat": 37.4043058973867,
    "lng": 126.98433410054
  },
  {
    "name": "김포원산",
    "address": "경기도 김포시 하성면 월하로 598",
    "category": "대신택배",
    "lat": 37.7108281571536,
    "lng": 126.621543150781
  },
  {
    "name": "평택모곡",
    "address": "경기도 평택시 방여울로 81-10",
    "category": "대신택배",
    "lat": 37.0428751600437,
    "lng": 127.091118446831
  },
  {
    "name": "평택어연",
    "address": "경기도 평택시 청북읍 청원로 384",
    "category": "대신택배",
    "lat": 37.0476400794182,
    "lng": 126.972669555549
  },
  {
    "name": "화성독정",
    "address": "경기도 화성시 장안면 포승장안로 1252",
    "category": "대신택배",
    "lat": 37.0661357971636,
    "lng": 126.84438095189
  },
  {
    "name": "의정부기업",
    "address": "경기도 양주시 만송로 207-29",
    "category": "대신택배",
    "lat": 37.7839896666353,
    "lng": 127.082487946975
  },
  {
    "name": "용인마성",
    "address": "경기도 용인시 처인구 포곡읍 석성로 1159",
    "category": "대신택배",
    "lat": 37.2804836609321,
    "lng": 127.221316742227
  },
  {
    "name": "용인남사",
    "address": "경기도 용인시 처인구 남사읍 통삼로 374",
    "category": "대신택배",
    "lat": 37.1315713986019,
    "lng": 127.132987104268
  },
  {
    "name": "포천물류",
    "address": "경기도 포천시 가산면 가산로86-22",
    "category": "대신택배",
    "lat": 37.8366761797493,
    "lng": 127.164598155491
  },
  {
    "name": "포천신북",
    "address": "경기도 포천시 신북면 신평로 77",
    "category": "대신택배",
    "lat": 37.9492521826388,
    "lng": 127.229965042084
  },
  {
    "name": "화성금의",
    "address": "경기도 화성시 장안면 금의솔안길 85",
    "category": "대신택배",
    "lat": 37.1083708948359,
    "lng": 126.837893746394
  },
  {
    "name": "의정부호원",
    "address": "경기도 의정부시 전좌로155번길 42",
    "category": "대신택배",
    "lat": 37.7231370180386,
    "lng": 127.038309630024
  },
  {
    "name": "남양주수동",
    "address": "경기 남양주시 수동면 비룡로742번길 67",
    "category": "대신택배",
    "lat": 37.7011589524361,
    "lng": 127.33220372895
  },
  {
    "name": "화성송림",
    "address": "화성시 남양읍 남양서로 55",
    "category": "대신택배",
    "lat": 37.2181699760182,
    "lng": 126.815263294887
  },
  {
    "name": "남양주사능",
    "address": "경기도 남양주시 진건읍 진건우회로120번길 26",
    "category": "대신택배",
    "lat": 37.6482880030631,
    "lng": 127.185880681578
  },
  {
    "name": "연천백학",
    "address": "경기도 연천군 백학면 백학산단길 126-61",
    "category": "대신택배",
    "lat": 38.0156595171987,
    "lng": 126.921525421007
  },
  {
    "name": "남시화",
    "address": "경기 시흥시 시화벤처로 2",
    "category": "대신택배",
    "lat": 37.3322021214147,
    "lng": 126.68340191087
  },
  {
    "name": "화성슬항",
    "address": "경기도 화성시 마도면 화성로 687",
    "category": "대신택배",
    "lat": 37.2090259441516,
    "lng": 126.764328023137
  },
  {
    "name": "씨엘물류",
    "address": "경기도 김포시 대곶면 상마신기로 65-40",
    "category": "대신택배",
    "lat": 37.6442628995032,
    "lng": 126.574440288057
  },
  {
    "name": "남양주연평",
    "address": "경기도 남양주시 진접읍 진건오남로1048",
    "category": "대신택배",
    "lat": 37.712300399584,
    "lng": 127.183676976482
  },
  {
    "name": "시흥배곧",
    "address": "경기도 시흥시 오이도로 21",
    "category": "대신택배",
    "lat": 37.3451349895581,
    "lng": 126.700735199234
  },
  {
    "name": "광명가학",
    "address": "경기도 광명시 가학로95번길 20",
    "category": "대신택배",
    "lat": 37.4170557784027,
    "lng": 126.861721647636
  },
  {
    "name": "화성사창",
    "address": "경기도 화성시 양감면 초록로 624",
    "category": "대신택배",
    "lat": 37.109017194573,
    "lng": 126.972979407977
  },
  {
    "name": "화성SK",
    "address": "경기도 화성시 봉담읍 주석로 1166",
    "category": "대신택배",
    "lat": 37.1998023694455,
    "lng": 126.939154903258
  },
  {
    "name": "일산센터",
    "address": "경기도 고양시 일산동구 성현로 155-14",
    "category": "대신택배",
    "lat": 37.7095159979929,
    "lng": 126.803503100552
  },
  {
    "name": "구리토평",
    "address": "경기도 구리시 벌말로80번길 118",
    "category": "대신택배",
    "lat": 37.5803006718301,
    "lng": 127.151374226088
  },
  {
    "name": "화성터미널",
    "address": "경기도 화성시 남양읍 남양서로 55",
    "category": "대신택배",
    "lat": 37.2181699760182,
    "lng": 126.815263294887
  },
  {
    "name": "음성터",
    "address": "음성군 대소면 대물로 46",
    "category": "대신택배",
    "lat": 36.9724223185863,
    "lng": 127.470580823294
  },
  {
    "name": "청주우암",
    "address": "청주시 청원구 중앙로95",
    "category": "대신택배",
    "lat": 36.6455604391855,
    "lng": 127.487742394912
  },
  {
    "name": "청주복대",
    "address": "청주시 흥덕구 월명로 89",
    "category": "대신택배",
    "lat": 36.6426334328121,
    "lng": 127.453401007166
  },
  {
    "name": "청주분평",
    "address": "청주시 서원구 청남로 2044",
    "category": "대신택배",
    "lat": 36.6146306423733,
    "lng": 127.486238775029
  },
  {
    "name": "청주율량",
    "address": "청주시 청원구 공항로112번길 3",
    "category": "대신택배",
    "lat": 36.6673333414414,
    "lng": 127.486087563352
  },
  {
    "name": "청주남이",
    "address": "청주시 서원구 남이면 대림로261",
    "category": "대신택배",
    "lat": 36.5939634372502,
    "lng": 127.441088975333
  },
  {
    "name": "청주강서",
    "address": "청주시 흥덕구 강서로9",
    "category": "대신택배",
    "lat": 36.6175717703091,
    "lng": 127.422498504068
  },
  {
    "name": "청주정봉",
    "address": "청주시 흥덕구 청주역로280",
    "category": "대신택배",
    "lat": 36.6401551548256,
    "lng": 127.388771640924
  },
  {
    "name": "제천하소",
    "address": "충북 제천시 하소동 203-12",
    "category": "대신택배",
    "lat": 37.1322141469091,
    "lng": 128.198250061216
  },
  {
    "name": "제천동현",
    "address": "제천시 화산동638-1",
    "category": "대신택배",
    "lat": 37.1274324053279,
    "lng": 128.214574210088
  },
  {
    "name": "제천장락",
    "address": "제천시 장락동 688-15",
    "category": "대신택배",
    "lat": 37.1438510076858,
    "lng": 128.222739210809
  },
  {
    "name": "충주봉방",
    "address": "충북 충주시 봉방동84-5",
    "category": "대신택배",
    "lat": 36.979049045322,
    "lng": 127.917330246583
  },
  {
    "name": "충주문화",
    "address": "충주시 문화동211-1",
    "category": "대신택배",
    "lat": 36.9675550014356,
    "lng": 127.915557986454
  },
  {
    "name": "충주주덕",
    "address": "충주시 주덕읍 신양리9-7",
    "category": "대신택배",
    "lat": 36.9747,
    "lng": 127.80428
  },
  {
    "name": "괴산읍",
    "address": "괴산군 괴산읍 서부길 19",
    "category": "대신택배",
    "lat": 36.8046363198039,
    "lng": 127.789639479724
  },
  {
    "name": "단양읍",
    "address": "충북 단양군 단양읍 삼봉로 371",
    "category": "대신택배",
    "lat": 36.9890223960597,
    "lng": 128.367247853901
  },
  {
    "name": "단양매포",
    "address": "단양군 매포읍 평동23길 15",
    "category": "대신택배",
    "lat": 37.0368862098305,
    "lng": 128.298220145426
  },
  {
    "name": "보은",
    "address": "보은군 보은읍 장신리8-15",
    "category": "대신택배",
    "lat": 36.4814433745465,
    "lng": 127.715366564035
  },
  {
    "name": "영동읍",
    "address": "충북 영동군 영동읍 동정로82-1",
    "category": "대신택배",
    "lat": 36.1729570425272,
    "lng": 127.789927040218
  },
  {
    "name": "영동황간",
    "address": "충북 영동군 황간면 신촌2길 7-5",
    "category": "대신택배",
    "lat": 36.2231318737339,
    "lng": 127.915160161274
  },
  {
    "name": "옥천읍",
    "address": "옥천군 옥천읍 성암2길 3",
    "category": "대신택배",
    "lat": 36.292799847111,
    "lng": 127.56921711696
  },
  {
    "name": "옥천기업",
    "address": "옥천군 옥천읍 옥천로 1587",
    "category": "대신택배",
    "lat": 36.3013978307729,
    "lng": 127.564912999584
  },
  {
    "name": "옥천청산",
    "address": "옥천군 청산면 남부로 2159",
    "category": "대신택배",
    "lat": 36.3433722314082,
    "lng": 127.796185695707
  },
  {
    "name": "광혜원",
    "address": "충청북도 음성군 대소면 대금로 77-12",
    "category": "대신택배",
    "lat": 36.9863518586987,
    "lng": 127.455479769554
  },
  {
    "name": "음성읍신천",
    "address": "음성군 음성읍 음성로 32-1",
    "category": "대신택배",
    "lat": 36.9263559906169,
    "lng": 127.686806115108
  },
  {
    "name": "음성생극",
    "address": "음성군 생극면 음성로1727",
    "category": "대신택배",
    "lat": 37.0405596936778,
    "lng": 127.603493229253
  },
  {
    "name": "음성맹동",
    "address": "음성군 맹동면 맹동산단로 8-1",
    "category": "대신택배",
    "lat": 36.925042898359,
    "lng": 127.562692400188
  },
  {
    "name": "음성금왕",
    "address": "음성군 금왕읍 탑골길 39",
    "category": "대신택배",
    "lat": 36.9896118963517,
    "lng": 127.586811139921
  },
  {
    "name": "음성삼성",
    "address": "음성군 삼성면 금일로 939",
    "category": "대신택배",
    "lat": 37.0174330662496,
    "lng": 127.492457209549
  },
  {
    "name": "음성대소",
    "address": "음성군 대소면 대동로869번길 14-6",
    "category": "대신택배",
    "lat": 36.964975265351,
    "lng": 127.48965599234
  },
  {
    "name": "음성오류",
    "address": "음성군 대소면 대물로 46",
    "category": "대신택배",
    "lat": 36.9724223185863,
    "lng": 127.470580823294
  },
  {
    "name": "증평읍",
    "address": "증평군 증평읍 초중로 66",
    "category": "대신택배",
    "lat": 36.7796569296226,
    "lng": 127.570750997058
  },
  {
    "name": "증평도안",
    "address": "증평군 도안면 충청대로 2167",
    "category": "대신택배",
    "lat": 36.8045261007878,
    "lng": 127.613666844726
  },
  {
    "name": "진천읍",
    "address": "진천군 진천읍 가산길 171",
    "category": "대신택배",
    "lat": 36.8736778102757,
    "lng": 127.471658778614
  },
  {
    "name": "진천덕산",
    "address": "진천군 덕산읍 합목리 403",
    "category": "대신택배",
    "lat": 36.8995138903665,
    "lng": 127.493142869103
  },
  {
    "name": "진천이월",
    "address": "진천군 이월면 진광로 895-16",
    "category": "대신택배",
    "lat": 36.9387677523591,
    "lng": 127.430164343078
  },
  {
    "name": "청주옥산",
    "address": "충북 청주시 흥덕구 옥산면 오산가좌로 110-13",
    "category": "대신택배",
    "lat": 36.6715490783258,
    "lng": 127.373525734601
  },
  {
    "name": "오창읍",
    "address": "충북 청주시 청원구 오창읍 두릉유리로 921",
    "category": "대신택배",
    "lat": 36.7417362617564,
    "lng": 127.432044353252
  },
  {
    "name": "오창산단",
    "address": "오창읍 양청리 679-8",
    "category": "대신택배",
    "lat": 36.723100746541,
    "lng": 127.436266738922
  },
  {
    "name": "청주내수",
    "address": "충청북도 청주시 청원구 내수읍 풍정3길 17",
    "category": "대신택배",
    "lat": 36.7098364133677,
    "lng": 127.556212248679
  },
  {
    "name": "청주오송",
    "address": "충북 청주시 흥덕구 오송읍 쌍청리308-3",
    "category": "대신택배",
    "lat": 36.6369181649361,
    "lng": 127.342886059855
  },
  {
    "name": "충주산척",
    "address": "충주시 산척면 충원대로 1651",
    "category": "대신택배",
    "lat": 37.0704630923721,
    "lng": 127.931069156892
  },
  {
    "name": "진천초평",
    "address": "충청북도 진천군 초평면 연암길 191",
    "category": "대신택배",
    "lat": 36.7981881592903,
    "lng": 127.513524396678
  },
  {
    "name": "충주신도시",
    "address": "충청북도 충주시 대소원면 첨단쉼터1길 27",
    "category": "대신택배",
    "lat": 36.9865798886514,
    "lng": 127.832714254678
  },
  {
    "name": "청주미원",
    "address": "충청북도 청주시 상당구 미원면 단재로 2483-1",
    "category": "대신택배",
    "lat": 36.6370351338329,
    "lng": 127.658678780346
  },
  {
    "name": "청주신봉",
    "address": "청주시 흥덕구 1순환로394번길 92-1",
    "category": "대신택배",
    "lat": 36.6590745993031,
    "lng": 127.469128162107
  },
  {
    "name": "음성읍읍내",
    "address": "음성군 음성읍 설성로 110",
    "category": "대신택배",
    "lat": 36.9299616361498,
    "lng": 127.694061870718
  },
  {
    "name": "청주효촌",
    "address": "충북 청주시 상당구 남일면 단재로 721-1",
    "category": "대신택배",
    "lat": 36.5677698461671,
    "lng": 127.511514750456
  },
  {
    "name": "음성성본",
    "address": "음성군 금왕읍 대금로981-1",
    "category": "대신택배",
    "lat": 36.9767182495532,
    "lng": 127.543114643195
  },
  {
    "name": "청주상신",
    "address": "청주시 흥덕구 상신로99번길 10-2",
    "category": "대신택배",
    "lat": 36.66702,
    "lng": 127.4333
  },
  {
    "name": "제천봉양",
    "address": "충청북도 제천시 봉양읍 주포로4길 14-6",
    "category": "대신택배",
    "lat": 37.131528354602,
    "lng": 128.122260473649
  },
  {
    "name": "가상테스트",
    "address": "충청북도 청주시 청원구 우암동",
    "category": "대신택배",
    "lat": 36.6492363833717,
    "lng": 127.486866445706
  },
  {
    "name": "세종부강",
    "address": "세종특별자치시 부강면 문곡리953-3",
    "category": "대신택배",
    "lat": 36.5274792783802,
    "lng": 127.382332870857
  },
  {
    "name": "세종서창",
    "address": "세종특별자치시 조치원읍 조치원중고길 6",
    "category": "대신택배",
    "lat": 36.6104752980803,
    "lng": 127.297423494169
  },
  {
    "name": "세종금남",
    "address": "세종특별자치시 금남면 용포로 36",
    "category": "대신택배",
    "lat": 36.461832377339,
    "lng": 127.280782795308
  },
  {
    "name": "세종전의",
    "address": "세종특별자치시 전의면 덕고개길 11-3",
    "category": "대신택배",
    "lat": 36.6813394035619,
    "lng": 127.193939611806
  },
  {
    "name": "세종월하",
    "address": "세종특별자치시 연서면 당산로 494",
    "category": "대신택배",
    "lat": 36.5742475053422,
    "lng": 127.290940335813
  },
  {
    "name": "천안서브",
    "address": "천안시 수레터1길 78",
    "category": "대신택배",
    "lat": 36.8553903199951,
    "lng": 127.113655565058
  },
  {
    "name": "계룡두마",
    "address": "계룡시 두마면 왕대로 146-5",
    "category": "대신택배",
    "lat": 36.2633757087834,
    "lng": 127.277654755385
  },
  {
    "name": "공주금성",
    "address": "공주시 미나리2길 10-2",
    "category": "대신택배",
    "lat": 36.4623698227376,
    "lng": 127.122801553209
  },
  {
    "name": "공주유구",
    "address": "공주시 유구읍 유구외곽로 265",
    "category": "대신택배",
    "lat": 36.5475918391958,
    "lng": 126.946931547738
  },
  {
    "name": "세종장군",
    "address": "공주시 장척로 24",
    "category": "대신택배",
    "lat": 36.4845015445719,
    "lng": 127.169010273849
  },
  {
    "name": "논산취암",
    "address": "논산시 계백로1074번길 5",
    "category": "대신택배",
    "lat": 36.2070339451391,
    "lng": 127.095088659371
  },
  {
    "name": "논산강경",
    "address": "충남 논산시 강경읍 중앙리128-11",
    "category": "대신택배",
    "lat": 36.1611991724847,
    "lng": 127.019079163254
  },
  {
    "name": "논산연무",
    "address": "논산시 연무읍 동안로 901",
    "category": "대신택배",
    "lat": 36.1321674325518,
    "lng": 127.104319135451
  },
  {
    "name": "논산연산",
    "address": "논산시 연산면 청동로 128",
    "category": "대신택배",
    "lat": 36.2112929127275,
    "lng": 127.206790911155
  },
  {
    "name": "대천",
    "address": "충남 보령시 두러뫼길 40-11",
    "category": "대신택배",
    "lat": 36.3547905058531,
    "lng": 126.607011200436
  },
  {
    "name": "보령웅천",
    "address": "보령시 웅천읍 충서로 865",
    "category": "대신택배",
    "lat": 36.2287618994608,
    "lng": 126.601912008841
  },
  {
    "name": "보령주교",
    "address": "보령시 주교면 울계큰길 477",
    "category": "대신택배",
    "lat": 36.3935101554905,
    "lng": 126.567161847078
  },
  {
    "name": "서산읍내",
    "address": "서산시 명륜1로 91",
    "category": "대신택배",
    "lat": 36.7852097458619,
    "lng": 126.448182727465
  },
  {
    "name": "서산오남",
    "address": "충청남도 서산시 오산8길 6",
    "category": "대신택배",
    "lat": 36.7555001254572,
    "lng": 126.472400659145
  },
  {
    "name": "서산해미",
    "address": "서산시 해미면 성지1로 8",
    "category": "대신택배",
    "lat": 36.7116697808121,
    "lng": 126.538540089393
  },
  {
    "name": "서산대산",
    "address": "서산시 대산읍 물안2길 17",
    "category": "대신택배",
    "lat": 36.9678893413363,
    "lng": 126.413818977707
  },
  {
    "name": "아산권곡",
    "address": "충남 아산시 삼동로 102-10",
    "category": "대신택배",
    "lat": 36.788717621063,
    "lng": 127.013621847372
  },
  {
    "name": "아산인주",
    "address": "충청남도 아산시 인주면 영인산로 11",
    "category": "대신택배",
    "lat": 36.868559608159,
    "lng": 126.885530557809
  },
  {
    "name": "아산둔포",
    "address": "아산시 둔포면 관대길 28",
    "category": "대신택배",
    "lat": 36.9014921225346,
    "lng": 127.033858890877
  },
  {
    "name": "아산방축",
    "address": "아산시 온천대로 1225",
    "category": "대신택배",
    "lat": 36.7879101305546,
    "lng": 126.974356218695
  },
  {
    "name": "아산탕정",
    "address": "아산시 탕정면 삼성로 429",
    "category": "대신택배",
    "lat": 36.8228598780761,
    "lng": 127.085152458515
  },
  {
    "name": "아산배방",
    "address": "충남 아산시 배방읍 북수북길7-4",
    "category": "대신택배",
    "lat": 36.7752734839918,
    "lng": 127.067583743734
  },
  {
    "name": "아산영인",
    "address": "아산시 영인면 월선길 2-45",
    "category": "대신택배",
    "lat": 36.8805802552177,
    "lng": 126.923780847259
  },
  {
    "name": "천안사직",
    "address": "천안시 동남구 영성로 1-80",
    "category": "대신택배",
    "lat": 36.7985610006022,
    "lng": 127.148224189472
  },
  {
    "name": "천안성정",
    "address": "천안시 서북구 쌍용대로 272",
    "category": "대신택배",
    "lat": 36.8214661815758,
    "lng": 127.136607885694
  },
  {
    "name": "천안입장",
    "address": "천안시 서북구 입장면 입장로14",
    "category": "대신택배",
    "lat": 36.9024385636404,
    "lng": 127.219512123002
  },
  {
    "name": "천안쌍용",
    "address": "천안시 서북구 충무로 153",
    "category": "대신택배",
    "lat": 36.7937336688024,
    "lng": 127.124295542638
  },
  {
    "name": "천안신당",
    "address": "천안시 서북구 상덕로 107",
    "category": "대신택배",
    "lat": 36.8766593126238,
    "lng": 127.120421164707
  },
  {
    "name": "천안차암",
    "address": "천안시 서북구 수레터1길 68",
    "category": "대신택배",
    "lat": 36.8545892825687,
    "lng": 127.114548516377
  },
  {
    "name": "천안성환",
    "address": "천안시 서북구 성환읍 성환1로 305",
    "category": "대신택배",
    "lat": 36.9222646406719,
    "lng": 127.127089532727
  },
  {
    "name": "천안병천",
    "address": "충청남도 천안시 동남구 병천면 병천1로 72",
    "category": "대신택배",
    "lat": 36.7594483429717,
    "lng": 127.294694558859
  },
  {
    "name": "천안성거",
    "address": "천안시 서북구 성거읍 수청2길 2",
    "category": "대신택배",
    "lat": 36.8767064996226,
    "lng": 127.200418627326
  },
  {
    "name": "천안성남",
    "address": "천안시 동남구 성남면 신사리558-4",
    "category": "대신택배",
    "lat": 36.7457526324911,
    "lng": 127.223939550563
  },
  {
    "name": "천안풍세",
    "address": "천안시 동남구 풍세면 풍세로 485",
    "category": "대신택배",
    "lat": 36.756612846269,
    "lng": 127.127513875794
  },
  {
    "name": "천안수신",
    "address": "천안시 동남구 수신면 성남로 929-9",
    "category": "대신택배",
    "lat": 36.7291036481591,
    "lng": 127.277989804361
  },
  {
    "name": "천안동면",
    "address": "천안시 동남구 동면 화복로 363",
    "category": "대신택배",
    "lat": 36.7662184502376,
    "lng": 127.391656526602
  },
  {
    "name": "천안삼거리",
    "address": "충청남도 천안시 동남구 해솔2길 17",
    "category": "대신택배",
    "lat": 36.7902658871958,
    "lng": 127.173671469554
  },
  {
    "name": "금산읍",
    "address": "금산군 금산읍 인삼로 149-1",
    "category": "대신택배",
    "lat": 36.1030059305344,
    "lng": 127.497763719702
  },
  {
    "name": "금산추부",
    "address": "충남 금산군 추부면 추풍천1길 36",
    "category": "대신택배",
    "lat": 36.1893900388334,
    "lng": 127.47225237735
  },
  {
    "name": "당진읍",
    "address": "충청남도 당진시 아미로 679",
    "category": "대신택배",
    "lat": 36.8716385926021,
    "lng": 126.64116200954
  },
  {
    "name": "당진합덕",
    "address": "당진시 합덕읍 합덕산단4로 10",
    "category": "대신택배",
    "lat": 36.8098206363436,
    "lng": 126.744982318608
  },
  {
    "name": "당진송악",
    "address": "충청남도 당진시 송악읍 송악로536-10",
    "category": "대신택배",
    "lat": 36.9334275585191,
    "lng": 126.731792607558
  },
  {
    "name": "당진신평",
    "address": "당진시 신평면 신평로 888",
    "category": "대신택배",
    "lat": 36.8887814845652,
    "lng": 126.769045442863
  },
  {
    "name": "당진송산",
    "address": "충남 당진시 송산면 작은벌들길 26",
    "category": "대신택배",
    "lat": 36.9609375462773,
    "lng": 126.68506156446
  },
  {
    "name": "부여",
    "address": "부여군 부여읍 성왕로161번길 9-15",
    "category": "대신택배",
    "lat": 36.2796820148722,
    "lng": 126.905808563527
  },
  {
    "name": "충남서천",
    "address": "서천군 서천읍 충절로 98",
    "category": "대신택배",
    "lat": 36.0740303105659,
    "lng": 126.693482565188
  },
  {
    "name": "충남장항",
    "address": "서천군 장항읍 성화로 130",
    "category": "대신택배",
    "lat": 36.0159208062653,
    "lng": 126.697888279556
  },
  {
    "name": "예산읍",
    "address": "예산군 예산읍 예산로 141",
    "category": "대신택배",
    "lat": 36.6787147430778,
    "lng": 126.840871064796
  },
  {
    "name": "예산삽교",
    "address": "충남 예산군 삽교읍 충의로 648",
    "category": "대신택배",
    "lat": 36.6888404995335,
    "lng": 126.737350992941
  },
  {
    "name": "예산고덕",
    "address": "충청남도 예산군 고덕면 한천로 36",
    "category": "대신택배",
    "lat": 36.7520852563652,
    "lng": 126.698800693506
  },
  {
    "name": "청양",
    "address": "청양군 청양읍 칠갑산로 208",
    "category": "대신택배",
    "lat": 36.4508895926484,
    "lng": 126.799461332579
  },
  {
    "name": "태안읍",
    "address": "태안군 태안읍 수등길 250",
    "category": "대신택배",
    "lat": 36.7535960165931,
    "lng": 126.323880711991
  },
  {
    "name": "태안안면",
    "address": "충청남도 태안군 안면읍 장터로 176-5",
    "category": "대신택배",
    "lat": 36.5225933206535,
    "lng": 126.345760259672
  },
  {
    "name": "충남홍성",
    "address": "홍성군 홍성읍 의사로36번길 30",
    "category": "대신택배",
    "lat": 36.6008907805876,
    "lng": 126.674307779085
  },
  {
    "name": "광천",
    "address": "홍성군 광천읍 홍남로 620번길",
    "category": "대신택배",
    "lat": 36.501878933797,
    "lng": 126.62039814139
  },
  {
    "name": "서산성연",
    "address": "충청남도 서산시 성연면 두치로 11",
    "category": "대신택배",
    "lat": 36.8378011688934,
    "lng": 126.463247028929
  },
  {
    "name": "아산음봉",
    "address": "충청남도 아산시 음봉면 연암율금로 411",
    "category": "대신택배",
    "lat": 36.8749369741237,
    "lng": 127.066867475196
  },
  {
    "name": "아산서브",
    "address": "충청남도 아산시 신창면 신창로144",
    "category": "대신택배",
    "lat": 36.8073451150463,
    "lng": 126.926482936362
  },
  {
    "name": "예산신암",
    "address": "충청남도 예산군 신암면 오신로 814",
    "category": "대신택배",
    "lat": 36.7383135214071,
    "lng": 126.811297720438
  },
  {
    "name": "아산테크노",
    "address": "충남 아산시 둔포면 아산밸리동로 211",
    "category": "대신택배",
    "lat": 36.9194706436568,
    "lng": 127.067237181666
  },
  {
    "name": "아산신창",
    "address": "아산시 신창면 오목리 1021",
    "category": "대신택배",
    "lat": 36.8072470133566,
    "lng": 126.92653043261
  },
  {
    "name": "당진석문",
    "address": "당진시 석문면 대호만로 1577",
    "category": "대신택배",
    "lat": 37.0058516541019,
    "lng": 126.551712556268
  },
  {
    "name": "논산은진",
    "address": "논산시 은진면 득안대로940-4",
    "category": "대신택배",
    "lat": 36.151540523953,
    "lng": 127.102430037996
  },
  {
    "name": "세종유로",
    "address": "세종특별자치시 전동면 신송로 133",
    "category": "대신택배",
    "lat": 36.6654300882829,
    "lng": 127.212952195135
  },
  {
    "name": "세종연기",
    "address": "세종시 연기면 연기리 412-37",
    "category": "대신택배",
    "lat": 36.5440242333755,
    "lng": 127.276202404814
  },
  {
    "name": "천안지벤",
    "address": "충남 천안시 서북구 차암동 46-2",
    "category": "대신택배",
    "lat": 36.8547016222812,
    "lng": 127.114109127535
  },
  {
    "name": "당진순성",
    "address": "충청남도 당진시 순성면 남부로 657-7",
    "category": "대신택배",
    "lat": 36.8707728672535,
    "lng": 126.681800732914
  },
  {
    "name": "세종전동",
    "address": "세종특별자치시 전동면 운주산로 323",
    "category": "대신택배",
    "lat": 36.6514071676901,
    "lng": 127.269166447129
  },
  {
    "name": "천안서원",
    "address": "충청남도 천안시 동남구 해솔2길 17",
    "category": "대신택배",
    "lat": 36.7902658871958,
    "lng": 127.173671469554
  },
  {
    "name": "금산복수",
    "address": "충청남도 금산군 복수면 복수로 784-2",
    "category": "대신택배",
    "lat": 36.2123541554573,
    "lng": 127.377643211687
  },
  {
    "name": "대전오정",
    "address": "대전시 대덕구 대전천북로 246",
    "category": "대신택배",
    "lat": 36.3492252357152,
    "lng": 127.409356724799
  },
  {
    "name": "대전신탄진",
    "address": "대전시 대덕구 석봉로24",
    "category": "대신택배",
    "lat": 36.4471489929166,
    "lng": 127.424427325905
  },
  {
    "name": "대전대화",
    "address": "대전시 대덕구 대화로 160 산업용재유통상가 18동 144호",
    "category": "대신택배",
    "lat": 36.3652922977042,
    "lng": 127.402926868961
  },
  {
    "name": "대전신일",
    "address": "대전시 대덕구 신일서로 8",
    "category": "대신택배",
    "lat": 36.4408727031979,
    "lng": 127.400773878232
  },
  {
    "name": "대전한남",
    "address": "대전시 대덕구 홍도로135번길 111",
    "category": "대신택배",
    "lat": 36.3579363998494,
    "lng": 127.420651936662
  },
  {
    "name": "대전원동",
    "address": "대전시 동구 충무로209번길 73",
    "category": "대신택배",
    "lat": 36.325231757125,
    "lng": 127.437180108806
  },
  {
    "name": "대전삼성",
    "address": "대전시 동구 현암로69",
    "category": "대신택배",
    "lat": 36.3419451129684,
    "lng": 127.415151185767
  },
  {
    "name": "대전용전",
    "address": "대전시 동구 한밭대로 1311",
    "category": "대신택배",
    "lat": 36.3524507578839,
    "lng": 127.440954959686
  },
  {
    "name": "대전산내",
    "address": "대전시 동구 산내로1337번길 7",
    "category": "대신택배",
    "lat": 36.2823959368471,
    "lng": 127.466222945219
  },
  {
    "name": "한밭물류",
    "address": "대전광역시 유성구 대정북로 30",
    "category": "대신택배",
    "lat": 36.3156076562246,
    "lng": 127.318711137018
  },
  {
    "name": "대전가장",
    "address": "대전시 서구 가장로 123",
    "category": "대신택배",
    "lat": 36.3329928603354,
    "lng": 127.387194073926
  },
  {
    "name": "대전가수원",
    "address": "대전 서구 계백로 1188",
    "category": "대신택배",
    "lat": 36.3053277116399,
    "lng": 127.355155170866
  },
  {
    "name": "대전월평",
    "address": "대전시 서구 신갈마로113번길 61",
    "category": "대신택배",
    "lat": 36.3436358700308,
    "lng": 127.365436377042
  },
  {
    "name": "유성구암",
    "address": "대전시 유성구 계룡로16번길 36",
    "category": "대신택배",
    "lat": 36.3550033497074,
    "lng": 127.331033322864
  },
  {
    "name": "유성신성",
    "address": "대전시 유성구 신성로61번길 52",
    "category": "대신택배",
    "lat": 36.3912646979302,
    "lng": 127.348475867765
  },
  {
    "name": "유성대정",
    "address": "대전시 유성구 대정북로 30",
    "category": "대신택배",
    "lat": 36.3156076562246,
    "lng": 127.318711137018
  },
  {
    "name": "대전문화",
    "address": "대전시 중구 서문로66",
    "category": "대신택배",
    "lat": 36.3142133693504,
    "lng": 127.408427318816
  },
  {
    "name": "대전둔곡",
    "address": "대전광역시 유성구 봉산북로 33",
    "category": "대신택배",
    "lat": 36.4480355084855,
    "lng": 127.383764165001
  },
  {
    "name": "고령다산",
    "address": "경북 고령군 다산면 다산강변로 4",
    "category": "대신택배",
    "lat": 35.7876891706626,
    "lng": 128.3988406108
  },
  {
    "name": "경북터",
    "address": "경북 고령군 성산면 동고령산단로 32",
    "category": "대신택배",
    "lat": 35.7712042135564,
    "lng": 128.382696790351
  },
  {
    "name": "경산사동",
    "address": "경산시 원효로40길 64-1",
    "category": "대신택배",
    "lat": 35.8140480733714,
    "lng": 128.753821926393
  },
  {
    "name": "경산진량",
    "address": "경산시 진량읍 황제1길 90",
    "category": "대신택배",
    "lat": 35.861052067302,
    "lng": 128.817649815981
  },
  {
    "name": "경산하양",
    "address": "경북 경산시 와촌면 하양로 337",
    "category": "대신택배",
    "lat": 35.9220000526981,
    "lng": 128.841168584456
  },
  {
    "name": "경산자인",
    "address": "경산시 자인면 자인로130",
    "category": "대신택배",
    "lat": 35.8190169712627,
    "lng": 128.827643660246
  },
  {
    "name": "경주황오",
    "address": "경주시 알천남로 258",
    "category": "대신택배",
    "lat": 35.8446985138427,
    "lng": 129.226534666502
  },
  {
    "name": "경주사정",
    "address": "경북 경주시 사정로 27",
    "category": "대신택배",
    "lat": 35.8369782925979,
    "lng": 129.206185554596
  },
  {
    "name": "경주외동",
    "address": "경주시 외동읍 산업로 2209",
    "category": "대신택배",
    "lat": 35.7093410032098,
    "lng": 129.323422810432
  },
  {
    "name": "경주용강",
    "address": "경주시 산업로 4379",
    "category": "대신택배",
    "lat": 35.8708021004398,
    "lng": 129.224511799857
  },
  {
    "name": "구미남통",
    "address": "구미시 송선로 497",
    "category": "대신택배",
    "lat": 36.1338568268264,
    "lng": 128.322273589747
  },
  {
    "name": "구미임수",
    "address": "경북 구미시 3공단1로 302-23",
    "category": "대신택배",
    "lat": 36.1094940245842,
    "lng": 128.404719911557
  },
  {
    "name": "구미원평",
    "address": "구미시 구미중앙로27길 10",
    "category": "대신택배",
    "lat": 36.1250721073625,
    "lng": 128.342078108174
  },
  {
    "name": "구미황상",
    "address": "구미시 수출대로25길 6-20",
    "category": "대신택배",
    "lat": 36.1110792217171,
    "lng": 128.423966866677
  },
  {
    "name": "구미고아",
    "address": "구미시 고아읍 선산대로 1004-3",
    "category": "대신택배",
    "lat": 36.2121405292628,
    "lng": 128.326482271314
  },
  {
    "name": "구미신평",
    "address": "구미시 구미대로30길 11",
    "category": "대신택배",
    "lat": 36.1174616768442,
    "lng": 128.364019365198
  },
  {
    "name": "구미봉산",
    "address": "구미시 산동면 첨단기업1로 24",
    "category": "대신택배",
    "lat": 36.1405756774449,
    "lng": 128.440109497326
  },
  {
    "name": "구미양포",
    "address": "경북 구미시 옥계동 752-8",
    "category": "대신택배",
    "lat": 36.1355049861702,
    "lng": 128.424920033701
  },
  {
    "name": "김천대광",
    "address": "김천시 공단로 51",
    "category": "대신택배",
    "lat": 36.1372195503498,
    "lng": 128.1389040016
  },
  {
    "name": "김천평화",
    "address": "김천시 평화장미길 60-14",
    "category": "대신택배",
    "lat": 36.1280170888313,
    "lng": 128.115531213335
  },
  {
    "name": "김천아포",
    "address": "김천시 아포읍 아포대로 1081",
    "category": "대신택배",
    "lat": 36.1595636094492,
    "lng": 128.247229450415
  },
  {
    "name": "문경흥덕",
    "address": "문경시 영신로86",
    "category": "대신택배",
    "lat": 36.5925034836828,
    "lng": 128.208381559554
  },
  {
    "name": "상주만산",
    "address": "상주시 북천로 39",
    "category": "대신택배",
    "lat": 36.4279794888312,
    "lng": 128.15531984405
  },
  {
    "name": "상주함창",
    "address": "상주시 함창읍 가야로 28",
    "category": "대신택배",
    "lat": 36.5676615471652,
    "lng": 128.177181114767
  },
  {
    "name": "상주공성",
    "address": "상주시 공성면 남상주로 399",
    "category": "대신택배",
    "lat": 36.2836364802574,
    "lng": 128.090963692165
  },
  {
    "name": "상주남성",
    "address": "상주시 상산로118",
    "category": "대신택배",
    "lat": 36.401431682317,
    "lng": 128.160228333407
  },
  {
    "name": "동안동",
    "address": "안동시 영호1길 45-1",
    "category": "대신택배",
    "lat": 36.5609535606243,
    "lng": 128.723461263227
  },
  {
    "name": "안동풍산",
    "address": "안동시 풍산읍 풍산중앙길 85",
    "category": "대신택배",
    "lat": 36.5805079757561,
    "lng": 128.570490942879
  },
  {
    "name": "안동옥동",
    "address": "안동시 은행나무로 46-10",
    "category": "대신택배",
    "lat": 36.5658815609543,
    "lng": 128.689534466552
  },
  {
    "name": "영주하망",
    "address": "영주시 원당로179번길 20",
    "category": "대신택배",
    "lat": 36.8269317281372,
    "lng": 128.630024646465
  },
  {
    "name": "영주풍기",
    "address": "영주시 풍기읍 기주로41번길 11",
    "category": "대신택배",
    "lat": 36.8678973508564,
    "lng": 128.531407568962
  },
  {
    "name": "영주휴천",
    "address": "영주시 대학로142번길 73",
    "category": "대신택배",
    "lat": 36.8117152957519,
    "lng": 128.612486470341
  },
  {
    "name": "영천완산",
    "address": "영천시 약전길14",
    "category": "대신택배",
    "lat": 35.9612409538124,
    "lng": 128.939693476949
  },
  {
    "name": "영천금호",
    "address": "영천시 금호읍 금호로 40",
    "category": "대신택배",
    "lat": 35.9294269520066,
    "lng": 128.866112364304
  },
  {
    "name": "포항죽도",
    "address": "포항시 북구 포스코대로 312-4",
    "category": "대신택배",
    "lat": 36.0189405403,
    "lng": 129.357373787809
  },
  {
    "name": "포항송도",
    "address": "포항시 남구 서동로 133",
    "category": "대신택배",
    "lat": 36.0400969749906,
    "lng": 129.372569607492
  },
  {
    "name": "포항해도",
    "address": "포항시 남구 중앙로11번길 10 (협력회관 뒤)",
    "category": "대신택배",
    "lat": 36.0141724092421,
    "lng": 129.369610363178
  },
  {
    "name": "포항흥해",
    "address": "포항시 북구 흥해읍 동해대로1734번길 15",
    "category": "대신택배",
    "lat": 36.1271856767872,
    "lng": 129.347574041323
  },
  {
    "name": "포항신항",
    "address": "포항시 북구 환호로63",
    "category": "대신택배",
    "lat": 36.0738961470772,
    "lng": 129.38988651158
  },
  {
    "name": "포항공단",
    "address": "포항시 남구 대송면 제내길53번길 32",
    "category": "대신택배",
    "lat": 35.9806047374246,
    "lng": 129.365825919665
  },
  {
    "name": "포항일월",
    "address": "경북 포항시 남구 일월동 242-3",
    "category": "대신택배",
    "lat": 35.9941728174487,
    "lng": 129.416555766238
  },
  {
    "name": "군위",
    "address": "군위군 군위읍 경북대로3601",
    "category": "대신택배",
    "lat": 36.2256559558865,
    "lng": 128.565999761057
  },
  {
    "name": "봉화읍",
    "address": "봉화군 봉화읍 봉화로 1107-28",
    "category": "대신택배",
    "lat": 36.8924181992325,
    "lng": 128.730512674939
  },
  {
    "name": "성주선남",
    "address": "성주군 선남면 성주로 4222",
    "category": "대신택배",
    "lat": 35.8814939183838,
    "lng": 128.374490951345
  },
  {
    "name": "성주백전",
    "address": "성주군 성주읍 성주로 3152",
    "category": "대신택배",
    "lat": 35.9218105246088,
    "lng": 128.279955585219
  },
  {
    "name": "영덕읍",
    "address": "영덕군 영덕읍 경동로 8408-1",
    "category": "대신택배",
    "lat": 36.4160355302753,
    "lng": 129.371245203385
  },
  {
    "name": "영덕강구",
    "address": "영덕군 강구면 강영로 125",
    "category": "대신택배",
    "lat": 36.3712840998709,
    "lng": 129.385064681895
  },
  {
    "name": "영덕영해",
    "address": "경북 영덕군 영해면 영덕로 1727",
    "category": "대신택배",
    "lat": 36.5311241889834,
    "lng": 129.40659587549
  },
  {
    "name": "경북영양",
    "address": "경북 영양군 영양읍 동서대로 91",
    "category": "대신택배",
    "lat": 36.6624645656173,
    "lng": 129.119076006342
  },
  {
    "name": "예천읍",
    "address": "경상북도 예천군 예천읍 충효로408-16",
    "category": "대신택배",
    "lat": 36.6572627494948,
    "lng": 128.466572640929
  },
  {
    "name": "예천용궁",
    "address": "경상북도 예천군 용궁면 용궁시장앞길 71",
    "category": "대신택배",
    "lat": 36.6064655332859,
    "lng": 128.274845433286
  },
  {
    "name": "울진읍",
    "address": "울진군 근남면 노음리227-6",
    "category": "대신택배",
    "lat": 36.9595643702156,
    "lng": 129.393766361473
  },
  {
    "name": "울진죽변",
    "address": "경상북도 울진군 죽변면 후정리 1063",
    "category": "대신택배",
    "lat": 37.0705818066164,
    "lng": 129.394516019964
  },
  {
    "name": "울진후포",
    "address": "울진군 후포면 삼율1길 21",
    "category": "대신택배",
    "lat": 36.6777188926494,
    "lng": 129.444803222099
  },
  {
    "name": "울진부구",
    "address": "경북 울진군 죽변면 후정리 1063",
    "category": "대신택배",
    "lat": 37.0705818066164,
    "lng": 129.394516019964
  },
  {
    "name": "울진평해",
    "address": "울진군 평해읍 평해로 50",
    "category": "대신택배",
    "lat": 36.7248445555647,
    "lng": 129.441112530861
  },
  {
    "name": "의성읍",
    "address": "경북 의성군 의성읍 의성길안로 20",
    "category": "대신택배",
    "lat": 36.3594260122588,
    "lng": 128.702903145439
  },
  {
    "name": "청도",
    "address": "청도군 청도읍 새마을로 1319",
    "category": "대신택배",
    "lat": 35.6491638245918,
    "lng": 128.750342228143
  },
  {
    "name": "고령성산",
    "address": "경북 고령군 성산면 성산로 892-23",
    "category": "대신택배",
    "lat": 35.74852,
    "lng": 128.35923
  },
  {
    "name": "진보",
    "address": "청송군 진보면 체육공원로 37",
    "category": "대신택배",
    "lat": 36.529500270224,
    "lng": 129.050543895459
  },
  {
    "name": "칠곡왜관",
    "address": "칠곡군 왜관읍 회동1길 16",
    "category": "대신택배",
    "lat": 35.9896021743486,
    "lng": 128.405073928201
  },
  {
    "name": "칠곡북삼",
    "address": "칠곡군 북삼읍 외율3길 7",
    "category": "대신택배",
    "lat": 36.0525844228245,
    "lng": 128.344363536496
  },
  {
    "name": "칠곡가산",
    "address": "칠곡군 가산면 다부원1길 67",
    "category": "대신택배",
    "lat": 36.0467532288737,
    "lng": 128.520020292929
  },
  {
    "name": "문경모전",
    "address": "문경시 당교7길 36",
    "category": "대신택배",
    "lat": 36.5814133267509,
    "lng": 128.182747046097
  },
  {
    "name": "경주안강",
    "address": "경북 경주시 안강읍 화전길 68",
    "category": "대신택배",
    "lat": 35.9918334959794,
    "lng": 129.211590666918
  },
  {
    "name": "뉴프라테크",
    "address": "경북 칠곡군 가산면 다부원1길 67",
    "category": "대신택배",
    "lat": 36.0467532288737,
    "lng": 128.520020292929
  },
  {
    "name": "고령대가야",
    "address": "경상북도 고령군 대가야읍 중앙로38",
    "category": "대신택배",
    "lat": 35.7289382573872,
    "lng": 128.27184567698
  },
  {
    "name": "대구사무소",
    "address": "경상북도 고령군 성산면 동고령산단로 32",
    "category": "대신택배",
    "lat": 35.7712042135564,
    "lng": 128.382696790351
  },
  {
    "name": "경산다문",
    "address": "경상북도 경산시 진량읍 다문로 380",
    "category": "대신택배",
    "lat": 35.8750521299355,
    "lng": 128.851374988191
  },
  {
    "name": "칠곡지천",
    "address": "경상북도 칠곡군 지천면 연화2길 32-25",
    "category": "대신택배",
    "lat": 35.9660311345215,
    "lng": 128.449170826105
  },
  {
    "name": "팜한농",
    "address": "경상북도 구미시 남구미로 69",
    "category": "대신택배",
    "lat": 36.0848302246795,
    "lng": 128.383520621058
  },
  {
    "name": "전주센터",
    "address": "완주군 봉동읍 둔산1로 62",
    "category": "대신택배",
    "lat": 35.9571157764932,
    "lng": 127.122283609127
  },
  {
    "name": "동군산",
    "address": "군산시 미장길 91-2",
    "category": "대신택배",
    "lat": 35.9661075413342,
    "lng": 126.733714154454
  },
  {
    "name": "서군산",
    "address": "군산시 산북로 210",
    "category": "대신택배",
    "lat": 35.9721172524351,
    "lng": 126.675704460591
  },
  {
    "name": "군산대야",
    "address": "군산시 대야면 대야시장로 12",
    "category": "대신택배",
    "lat": 35.9446700911036,
    "lng": 126.816331038096
  },
  {
    "name": "군산신항",
    "address": "군산시 자유로 125",
    "category": "대신택배",
    "lat": 35.9614753017904,
    "lng": 126.588981713391
  },
  {
    "name": "김제서암",
    "address": "김제시 구수동2길 46",
    "category": "대신택배",
    "lat": 35.8112186218175,
    "lng": 126.883887477614
  },
  {
    "name": "김제만경",
    "address": "김제시 구수동2길 46",
    "category": "대신택배",
    "lat": 35.8112186218175,
    "lng": 126.883887477614
  },
  {
    "name": "김제신풍",
    "address": "김제시 두월로 266",
    "category": "대신택배",
    "lat": 35.7968437601246,
    "lng": 126.907359733009
  },
  {
    "name": "남원왕정",
    "address": "남원시 남문로 321",
    "category": "대신택배",
    "lat": 35.4060743791468,
    "lng": 127.366860301971
  },
  {
    "name": "남원도통",
    "address": "전라북도 남원시 이백면 척문길31-14",
    "category": "대신택배",
    "lat": 35.4232863533306,
    "lng": 127.414186024151
  },
  {
    "name": "익산인화",
    "address": "익산시 익산대로4길 35",
    "category": "대신택배",
    "lat": 35.9317384663779,
    "lng": 126.94805118673
  },
  {
    "name": "익산부송",
    "address": "전북 익산시 부송로19-10",
    "category": "대신택배",
    "lat": 35.9533450180041,
    "lng": 126.992112885052
  },
  {
    "name": "익산남중",
    "address": "익산시 선화로 51길 29-1",
    "category": "대신택배",
    "lat": 35.9497975442522,
    "lng": 126.966468153845
  },
  {
    "name": "익산송학",
    "address": "익산시 학곤로 84",
    "category": "대신택배",
    "lat": 35.9382508704459,
    "lng": 126.937330337032
  },
  {
    "name": "익산금강",
    "address": "익산시 하나로 123",
    "category": "대신택배",
    "lat": 35.93300286069,
    "lng": 126.979052611833
  },
  {
    "name": "익산함열",
    "address": "전북 익산시 함열읍 함열로13",
    "category": "대신택배",
    "lat": 36.0749872679082,
    "lng": 126.958057024762
  },
  {
    "name": "익산금마",
    "address": "전북 익산시 금마면 궁성로 816",
    "category": "대신택배",
    "lat": 35.985332607266,
    "lng": 127.053751378444
  },
  {
    "name": "전주화산",
    "address": "전주시 완산구 메너머3길 9",
    "category": "대신택배",
    "lat": 35.8236918175562,
    "lng": 127.121830189115
  },
  {
    "name": "전주인후",
    "address": "전주시 덕진구 건산로 77",
    "category": "대신택배",
    "lat": 35.8325547175057,
    "lng": 127.145635160472
  },
  {
    "name": "전주팔복",
    "address": "전북 전주시 덕진구 신복천변3길 2",
    "category": "대신택배",
    "lat": 35.8571092076088,
    "lng": 127.106927372252
  },
  {
    "name": "전주삼천",
    "address": "전주시 완산구 안행3길 6",
    "category": "대신택배",
    "lat": 35.7999286539649,
    "lng": 127.130803095718
  },
  {
    "name": "전주송천",
    "address": "전주시 덕진구 동부대로 1176",
    "category": "대신택배",
    "lat": 35.8700519276926,
    "lng": 127.118736399322
  },
  {
    "name": "전주장동",
    "address": "전주시 덕진구 장동유통로 29-3",
    "category": "대신택배",
    "lat": 35.861111738738,
    "lng": 127.061610452358
  },
  {
    "name": "정읍연지",
    "address": "정읍시 명덕3길 20",
    "category": "대신택배",
    "lat": 35.5780851726916,
    "lng": 126.846957248734
  },
  {
    "name": "정읍수성",
    "address": "정읍시 수성4로 21-12",
    "category": "대신택배",
    "lat": 35.5854219579645,
    "lng": 126.857747923682
  },
  {
    "name": "고창",
    "address": "고창군 고창읍 남정2길 8",
    "category": "대신택배",
    "lat": 35.4302018419789,
    "lng": 126.696053492833
  },
  {
    "name": "무주",
    "address": "무주군 무주읍 우명길 7",
    "category": "대신택배",
    "lat": 35.9987945228366,
    "lng": 127.653870033595
  },
  {
    "name": "전북부안",
    "address": "부안군 부안읍 오리정로 25",
    "category": "대신택배",
    "lat": 35.7234639064429,
    "lng": 126.724820509774
  },
  {
    "name": "전북순창",
    "address": "순창군 순창읍 옥천동길 20",
    "category": "대신택배",
    "lat": 35.3755121199206,
    "lng": 127.135058317366
  },
  {
    "name": "완주봉동",
    "address": "완주군 봉동읍 둔산1로 62",
    "category": "대신택배",
    "lat": 35.9571157764932,
    "lng": 127.122283609127
  },
  {
    "name": "완주삼례",
    "address": "전북 완주군 삼례읍 삼례리1089",
    "category": "대신택배",
    "lat": 35.9158926601939,
    "lng": 127.077282529348
  },
  {
    "name": "임실읍",
    "address": "전북 임실군 임실읍 호국로 1716",
    "category": "대신택배",
    "lat": 35.6150899983177,
    "lng": 127.288557006172
  },
  {
    "name": "장수",
    "address": "전북 장수군 계남면 장무로 148-3",
    "category": "대신택배",
    "lat": 35.72439366159,
    "lng": 127.583488594674
  },
  {
    "name": "진안",
    "address": "전북 진안군 진안읍 진무로 1008",
    "category": "대신택배",
    "lat": 35.7860261716785,
    "lng": 127.42289212232
  },
  {
    "name": "남군산",
    "address": "전북특별자치도 군산시 옥산면 백석로 66",
    "category": "대신택배",
    "lat": 35.9451074054267,
    "lng": 126.719567734186
  },
  {
    "name": "대구터",
    "address": "대구시 북구 유통단지로13길 20",
    "category": "대신택배",
    "lat": 35.9094191128621,
    "lng": 128.609395178305
  },
  {
    "name": "대구봉덕",
    "address": "대구시 남구 봉덕로6길 48",
    "category": "대신택배",
    "lat": 35.8439702155936,
    "lng": 128.591502629711
  },
  {
    "name": "대구대명",
    "address": "대구시 중구 남산로 14",
    "category": "대신택배",
    "lat": 35.8578114457762,
    "lng": 128.583183974389
  },
  {
    "name": "대구본리",
    "address": "대구시 달서구 대명천로 204",
    "category": "대신택배",
    "lat": 35.8416151216863,
    "lng": 128.538055244928
  },
  {
    "name": "대구장기",
    "address": "대구시 달서구 문화회관길 38",
    "category": "대신택배",
    "lat": 35.8484830184653,
    "lng": 128.521208832845
  },
  {
    "name": "대구월배",
    "address": "대구시 달서구 달서대로 36",
    "category": "대신택배",
    "lat": 35.812996900668,
    "lng": 128.512944101249
  },
  {
    "name": "대구월암",
    "address": "대구시 달서구 성서서로19길 38",
    "category": "대신택배",
    "lat": 35.8337183649335,
    "lng": 128.495755615147
  },
  {
    "name": "대구호산",
    "address": "대구시 달서구 호산동718-3",
    "category": "대신택배",
    "lat": 35.8412602705015,
    "lng": 128.49086146191
  },
  {
    "name": "성서4공단",
    "address": "대구시 달서구 성서4차첨단로 108-11",
    "category": "대신택배",
    "lat": 35.8242612767408,
    "lng": 128.513499031417
  },
  {
    "name": "대구신천",
    "address": "대구시 동구 장등로 11",
    "category": "대신택배",
    "lat": 35.8684790756674,
    "lng": 128.622867389704
  },
  {
    "name": "대구반야월",
    "address": "대구시 동구 안심로 5",
    "category": "대신택배",
    "lat": 35.8736717111625,
    "lng": 128.689173081495
  },
  {
    "name": "대구입석",
    "address": "대구광역시 동구 동촌로16길 25",
    "category": "대신택배",
    "lat": 35.8862509375006,
    "lng": 128.651009757141
  },
  {
    "name": "대구침산",
    "address": "대구시 북구 오봉로 36길64",
    "category": "대신택배",
    "lat": 35.9030661941663,
    "lng": 128.586019671906
  },
  {
    "name": "대구유통",
    "address": "대구시 북구 유통단지로 16",
    "category": "대신택배",
    "lat": 35.90496577229,
    "lng": 128.606395571765
  },
  {
    "name": "대구칠성",
    "address": "대구시 북구 칠성남로 92",
    "category": "대신택배",
    "lat": 35.878449547578,
    "lng": 128.590332221992
  },
  {
    "name": "대구산격",
    "address": "대구시 북구 유통단지로13길 20",
    "category": "대신택배",
    "lat": 35.9094191128621,
    "lng": 128.609395178305
  },
  {
    "name": "대구노원3",
    "address": "대구시 북구 노원로17길 42",
    "category": "대신택배",
    "lat": 35.8985249127836,
    "lng": 128.569278008785
  },
  {
    "name": "대구검단",
    "address": "대구시 북구 검단로 223",
    "category": "대신택배",
    "lat": 35.9136147930636,
    "lng": 128.628764734497
  },
  {
    "name": "대구매천",
    "address": "대구광역시 북구 칠곡중앙대로42길 11",
    "category": "대신택배",
    "lat": 35.9157503270624,
    "lng": 128.549876684787
  },
  {
    "name": "대구중리",
    "address": "대구시 서구 와룡로90길 7",
    "category": "대신택배",
    "lat": 35.8729818311612,
    "lng": 128.539614682875
  },
  {
    "name": "대구비산",
    "address": "대구시 서구 염색공단천로 32",
    "category": "대신택배",
    "lat": 35.8914143754033,
    "lng": 128.549618764666
  },
  {
    "name": "대구원대",
    "address": "대구시 서구 달서천로 411",
    "category": "대신택배",
    "lat": 35.8811415112894,
    "lng": 128.578311816369
  },
  {
    "name": "대구상리",
    "address": "대구광역시 서구 와룡로100길 41",
    "category": "대신택배",
    "lat": 35.8774923630578,
    "lng": 128.544526850351
  },
  {
    "name": "대구범어",
    "address": "대구시 수성구 세진로3길 69",
    "category": "대신택배",
    "lat": 35.8624661905132,
    "lng": 128.638765533334
  },
  {
    "name": "대구시지",
    "address": "대구광역시 수성구 고모로26길 21",
    "category": "대신택배",
    "lat": 35.8529985686359,
    "lng": 128.686385866832
  },
  {
    "name": "대구태평",
    "address": "대구시 중구 태평로 61",
    "category": "대신택배",
    "lat": 35.877685286201,
    "lng": 128.584988291181
  },
  {
    "name": "대구공원",
    "address": "대구시 중구 달성공원로 22",
    "category": "대신택배",
    "lat": 35.8726189273293,
    "lng": 128.579943895341
  },
  {
    "name": "대구서문",
    "address": "대구시 중구 대신동1268",
    "category": "대신택배",
    "lat": 35.8646961347865,
    "lng": 128.575155817477
  },
  {
    "name": "달성논공",
    "address": "달성군 논공읍 논공중앙로 36",
    "category": "대신택배",
    "lat": 35.72374439792,
    "lng": 128.440604223173
  },
  {
    "name": "달성화원",
    "address": "달성군 화원읍 비슬로 479길 14",
    "category": "대신택배",
    "lat": 35.7959943209859,
    "lng": 128.481694415637
  },
  {
    "name": "달성현풍",
    "address": "대구광역시 달성군 현풍읍 성하길 24",
    "category": "대신택배",
    "lat": 35.7009047323856,
    "lng": 128.437659377694
  },
  {
    "name": "달성다사",
    "address": "대구광역시 달성군 다사읍 세천로10길 41",
    "category": "대신택배",
    "lat": 35.8701407243201,
    "lng": 128.475116555409
  },
  {
    "name": "달성옥포",
    "address": "대구광역시 달성군 논공읍 달성군청로6길 9",
    "category": "대신택배",
    "lat": 35.7745709058444,
    "lng": 128.428258214398
  },
  {
    "name": "달성구지",
    "address": "대구광역시 달성군 구지면 내리 840-2",
    "category": "대신택배",
    "lat": 35.642388900421,
    "lng": 128.419420329238
  },
  {
    "name": "대구갈산",
    "address": "대구광역시 달서구 성서공단로39길 20",
    "category": "대신택배",
    "lat": 35.8373356607089,
    "lng": 128.50412658266
  },
  {
    "name": "달성하빈",
    "address": "대구광역시 달성군 하빈면 하빈로 447",
    "category": "대신택배",
    "lat": 35.9035447356144,
    "lng": 128.445117908178
  },
  {
    "name": "대구노원1",
    "address": "대구광역시 북구 노원동로7길 8-11",
    "category": "대신택배",
    "lat": 35.8945846973202,
    "lng": 128.57584660577
  },
  {
    "name": "크레텍책임",
    "address": "대구광역시 서구 달성공원로 67-1",
    "category": "대신택배",
    "lat": 35.87582,
    "lng": 128.57843
  },
  {
    "name": "대구중리2",
    "address": "대구광역시 서구 국채보상로10길 16",
    "category": "대신택배",
    "lat": 35.8670549495578,
    "lng": 128.53599101341
  },
  {
    "name": "달성대리",
    "address": "달성군 현풍읍 대리 577-6",
    "category": "대신택배",
    "lat": 35.6640269780289,
    "lng": 128.425188384381
  },
  {
    "name": "울산학성",
    "address": "울산시 중구 구교로 152-1",
    "category": "대신택배",
    "lat": 35.55809,
    "lng": 129.34017
  },
  {
    "name": "울산달동",
    "address": "울산시 남구 여천로 59-8",
    "category": "대신택배",
    "lat": 35.5246439205206,
    "lng": 129.340690347744
  },
  {
    "name": "울산무거",
    "address": "울산시 남구 대학로 19",
    "category": "대신택배",
    "lat": 35.5379739860672,
    "lng": 129.25506910711
  },
  {
    "name": "울산삼산",
    "address": "울산시 남구 화합로 102",
    "category": "대신택배",
    "lat": 35.5339415247728,
    "lng": 129.341417014585
  },
  {
    "name": "울산선암",
    "address": "울산시 남구 두왕로34번길 34-6",
    "category": "대신택배",
    "lat": 35.5068198313436,
    "lng": 129.312105674186
  },
  {
    "name": "울산여천",
    "address": "울산시 남구 여천로 210",
    "category": "대신택배",
    "lat": 35.5282943366892,
    "lng": 129.356011712593
  },
  {
    "name": "울산진장",
    "address": "울산시 북구 진장동285-13",
    "category": "대신택배",
    "lat": 35.5729890744504,
    "lng": 129.359091693299
  },
  {
    "name": "울산호계",
    "address": "울산시 북구 당수골26길 53",
    "category": "대신택배",
    "lat": 35.6302551991215,
    "lng": 129.365681577997
  },
  {
    "name": "울산언양",
    "address": "울산시 울주군 언양읍 어음리418-2",
    "category": "대신택배",
    "lat": 35.5638215717229,
    "lng": 129.132504327874
  },
  {
    "name": "울산온산",
    "address": "울주군 온산읍 내동2길 28",
    "category": "대신택배",
    "lat": 35.4399448955478,
    "lng": 129.334833330567
  },
  {
    "name": "울산덕하",
    "address": "울주군 청량면 온산로774",
    "category": "대신택배",
    "lat": 35.4961275055726,
    "lng": 129.306382834173
  },
  {
    "name": "울산웅촌",
    "address": "울주군 웅촌면 고연로 56-2",
    "category": "대신택배",
    "lat": 35.4503432177785,
    "lng": 129.174855146425
  },
  {
    "name": "울산효문",
    "address": "울산광역시 북구 효암로 264",
    "category": "대신택배",
    "lat": 35.5713255873523,
    "lng": 129.363986089782
  },
  {
    "name": "울산범서",
    "address": "울산 울주군 범서읍 굴화길 31-7",
    "category": "대신택배",
    "lat": 35.5553666477165,
    "lng": 129.25699687645
  },
  {
    "name": "울산서생",
    "address": "울산광역시 울주군 서생면 신암리 544-2번지",
    "category": "대신택배",
    "lat": 35.3540048928732,
    "lng": 129.323718503086
  },
  {
    "name": "광주센터",
    "address": "광주시 광산구 하남산단9번로 77",
    "category": "대신택배",
    "lat": 35.2142863894041,
    "lng": 126.803830886066
  },
  {
    "name": "광주흑석",
    "address": "광주시 광산구 하남대로 123",
    "category": "대신택배",
    "lat": 35.1804785797654,
    "lng": 126.807099306062
  },
  {
    "name": "광주소촌",
    "address": "광주시 광산구 어등대로531번길15",
    "category": "대신택배",
    "lat": 35.1537239423893,
    "lng": 126.781395693456
  },
  {
    "name": "광주도덕",
    "address": "광주시 광산구 삼도로 274-1",
    "category": "대신택배",
    "lat": 35.1633826616499,
    "lng": 126.692816514726
  },
  {
    "name": "광주첨단",
    "address": "광주시 광산구 비아동635",
    "category": "대신택배",
    "lat": 35.2209199863952,
    "lng": 126.829245962768
  },
  {
    "name": "광주안청",
    "address": "광주시 광산구 하남산단9번로 77",
    "category": "대신택배",
    "lat": 35.2142863894041,
    "lng": 126.803830886066
  },
  {
    "name": "광주평동",
    "address": "광주시 광산구 연산로 321",
    "category": "대신택배",
    "lat": 35.1238183789938,
    "lng": 126.762774285872
  },
  {
    "name": "광주계림",
    "address": "광주광역시 북구 제봉로 251(북동)",
    "category": "대신택배",
    "lat": 35.156751762141,
    "lng": 126.911798274779
  },
  {
    "name": "광주수기",
    "address": "광주시 동구 독립로 234-1",
    "category": "대신택배",
    "lat": 35.14875,
    "lng": 126.92768
  },
  {
    "name": "광주운암",
    "address": "광주시 북구 하남대로 733-9",
    "category": "대신택배",
    "lat": 35.1724750206989,
    "lng": 126.872219739077
  },
  {
    "name": "광주오치",
    "address": "광주시 북구 서하로 279",
    "category": "대신택배",
    "lat": 35.1872728467132,
    "lng": 126.911111045566
  },
  {
    "name": "광주본촌",
    "address": "광주시 북구 복룡길 20",
    "category": "대신택배",
    "lat": 35.2158221141053,
    "lng": 126.866128753774
  },
  {
    "name": "광주임동",
    "address": "광주시 북구 자미로 11",
    "category": "대신택배",
    "lat": 35.1672256887029,
    "lng": 126.902451397285
  },
  {
    "name": "광주치평",
    "address": "광주시 서구 월암신기길 131",
    "category": "대신택배",
    "lat": 35.1410966423393,
    "lng": 126.848096195352
  },
  {
    "name": "광주매월",
    "address": "광주시 서구 매월2로 53 산업용재유통센터 D블록 20동 120호",
    "category": "대신택배",
    "lat": 35.1162234875204,
    "lng": 126.860280288251
  },
  {
    "name": "광주유덕",
    "address": "광주시 서구 유덕로104",
    "category": "대신택배",
    "lat": 35.1669229805729,
    "lng": 126.843808674902
  },
  {
    "name": "광주진곡",
    "address": "광주 광산구 진곡산단2번로 47-30",
    "category": "대신택배",
    "lat": 35.2013808341613,
    "lng": 126.789178976113
  },
  {
    "name": "광주송하",
    "address": "광주광역시 남구 송암로24번길 26",
    "category": "대신택배",
    "lat": 35.1082651364309,
    "lng": 126.882626197553
  },
  {
    "name": "광주지석",
    "address": "광주시 남구 포충로 600-7",
    "category": "대신택배",
    "lat": 35.0814284513287,
    "lng": 126.835367203525
  },
  {
    "name": "광주캐리어",
    "address": "광주 광산구 고봉로 224-9",
    "category": "대신택배",
    "lat": 35.1848784595296,
    "lng": 126.786884273522
  },
  {
    "name": "광주두암",
    "address": "광주광역시 북구 참판로180",
    "category": "대신택배",
    "lat": 35.173898714888,
    "lng": 126.933797519477
  },
  {
    "name": "광주신창",
    "address": "광주광역시 광산구 수등로258번길 60",
    "category": "대신택배",
    "lat": 35.1824468415017,
    "lng": 126.840748741103
  },
  {
    "name": "광주연산",
    "address": "광주광역시 광산구 평동산단7번로 72-20",
    "category": "대신택배",
    "lat": 35.1130146106263,
    "lng": 126.756038145163
  },
  {
    "name": "광주대촌",
    "address": "광주광역시 북구 삼소로 438",
    "category": "대신택배",
    "lat": 35.2435235328426,
    "lng": 126.879607644699
  },
  {
    "name": "부산센터",
    "address": "김해시 상동면 동북로 463",
    "category": "대신택배",
    "lat": 35.3141198487231,
    "lng": 128.968484981816
  },
  {
    "name": "부산신항",
    "address": "창원시 진해구 만금로 13",
    "category": "대신택배",
    "lat": 35.0993046732434,
    "lng": 128.822156843136
  },
  {
    "name": "거제고현",
    "address": "거제시 중곡1로2길 33",
    "category": "대신택배",
    "lat": 34.8948046553701,
    "lng": 128.628815749741
  },
  {
    "name": "거제옥포",
    "address": "경상남도 거제시 덕포2길 7",
    "category": "대신택배",
    "lat": 34.9107267386985,
    "lng": 128.700674491738
  },
  {
    "name": "거제상동",
    "address": "거제시 거제중앙로5길 28",
    "category": "대신택배",
    "lat": 34.8770591137374,
    "lng": 128.626319151186
  },
  {
    "name": "김해어방",
    "address": "김해시 김해대로 2553번길 56-10",
    "category": "대신택배",
    "lat": 35.2334857597619,
    "lng": 128.905990093027
  },
  {
    "name": "김해외동",
    "address": "경남 김해시 금관대로1073번길 27",
    "category": "대신택배",
    "lat": 35.2233603535594,
    "lng": 128.846593075703
  },
  {
    "name": "김해진영",
    "address": "김해시 진영읍 김해대로 703",
    "category": "대신택배",
    "lat": 35.2976757698806,
    "lng": 128.761855651761
  },
  {
    "name": "김해주촌",
    "address": "김해시 주촌면 서부로 1424",
    "category": "대신택배",
    "lat": 35.2245721290334,
    "lng": 128.818794891828
  },
  {
    "name": "김해상동",
    "address": "김해시 상동면 동북로 465",
    "category": "대신택배",
    "lat": 35.3132609568358,
    "lng": 128.967743161965
  },
  {
    "name": "김해진례",
    "address": "김해시 진례면 고모로 508",
    "category": "대신택배",
    "lat": 35.2690102124801,
    "lng": 128.775523166565
  },
  {
    "name": "김해한림",
    "address": "김해시 한림면 김해대로1022번길 84-46",
    "category": "대신택배",
    "lat": 35.2860576006225,
    "lng": 128.794389705479
  },
  {
    "name": "김해생림",
    "address": "경남 김해시 생림면 사촌리497-1",
    "category": "대신택배",
    "lat": 35.3191893854228,
    "lng": 128.867942127632
  },
  {
    "name": "김해장유",
    "address": "경상남도 김해시 장유로33-8",
    "category": "대신택배",
    "lat": 35.217704985461,
    "lng": 128.797442122484
  },
  {
    "name": "김해삼계",
    "address": "경남 김해시 삼계동1242-1",
    "category": "대신택배",
    "lat": 35.2711548942549,
    "lng": 128.857364464158
  },
  {
    "name": "김해천곡",
    "address": "김해시 주촌면 서부로1637번길 11",
    "category": "대신택배",
    "lat": 35.2377537081913,
    "lng": 128.830676891901
  },
  {
    "name": "김해대동",
    "address": "김해시 대동면 동남로49번길 84",
    "category": "대신택배",
    "lat": 35.2366792726774,
    "lng": 128.985897774464
  },
  {
    "name": "밀양",
    "address": "밀양시 부북면 춘화로 29",
    "category": "대신택배",
    "lat": 35.5073613039728,
    "lng": 128.745150831051
  },
  {
    "name": "삼랑진",
    "address": "밀양시 삼랑진읍 삼랑진로 224",
    "category": "대신택배",
    "lat": 35.3967613925996,
    "lng": 128.836249854043
  },
  {
    "name": "삼천포",
    "address": "경남 사천시 향촌5길 38-25",
    "category": "대신택배",
    "lat": 34.9348299014809,
    "lng": 128.092735606012
  },
  {
    "name": "사천사주",
    "address": "경남 사천시 사남면 초전로 7",
    "category": "대신택배",
    "lat": 35.056323036672,
    "lng": 128.059695714533
  },
  {
    "name": "사천구암",
    "address": "경상남도 사천시 축동면 배춘길 15",
    "category": "대신택배",
    "lat": 35.0956031941502,
    "lng": 128.098854580434
  },
  {
    "name": "양산신기",
    "address": "양산시 삼성2길 6",
    "category": "대신택배",
    "lat": 35.3543364794662,
    "lng": 129.04275571821
  },
  {
    "name": "양산웅상",
    "address": "양산시 대평들2길 11-17",
    "category": "대신택배",
    "lat": 35.4149110481144,
    "lng": 129.16478968745
  },
  {
    "name": "양산동면",
    "address": "경남 양산시 동면 금산4길 56",
    "category": "대신택배",
    "lat": 35.3103197371812,
    "lng": 129.028745753863
  },
  {
    "name": "양산산막",
    "address": "양산시 상북면 소토로 37",
    "category": "대신택배",
    "lat": 35.3799645389027,
    "lng": 129.054223525642
  },
  {
    "name": "양산덕계",
    "address": "양산시 매곡외산로 127",
    "category": "대신택배",
    "lat": 35.3684365649795,
    "lng": 129.165278126723
  },
  {
    "name": "양산어곡",
    "address": "경남 양산시 어곡동131-1",
    "category": "대신택배",
    "lat": 35.3769465373307,
    "lng": 129.02796704907
  },
  {
    "name": "진주옥봉",
    "address": "진주시 진산로6번길",
    "category": "대신택배",
    "lat": 35.1928100318085,
    "lng": 128.093304260001
  },
  {
    "name": "진주공단",
    "address": "경남 진주시 남강로 1039",
    "category": "대신택배",
    "lat": 35.1699039504774,
    "lng": 128.106018361291
  },
  {
    "name": "진주장대",
    "address": "진주시 진양호로590번길 4",
    "category": "대신택배",
    "lat": 35.193811398745,
    "lng": 128.089581868003
  },
  {
    "name": "진주문산",
    "address": "진주시 문산읍 동부로 546-1",
    "category": "대신택배",
    "lat": 35.1645821421943,
    "lng": 128.161821509163
  },
  {
    "name": "마산석전",
    "address": "경상남도 창원시 마산회원구 석전북19길 6",
    "category": "대신택배",
    "lat": 35.2303905713785,
    "lng": 128.569863794451
  },
  {
    "name": "마산봉암",
    "address": "경상남도 창원시 마산회원구 봉암북13길 41",
    "category": "대신택배",
    "lat": 35.218763184942,
    "lng": 128.605005066999
  },
  {
    "name": "마산신포",
    "address": "창원시 마산합포구 어시장9길 8",
    "category": "대신택배",
    "lat": 35.2002580503958,
    "lng": 128.57427238735
  },
  {
    "name": "마산해운",
    "address": "창원시 마산합포구 문화동로 7",
    "category": "대신택배",
    "lat": 35.188292862168,
    "lng": 128.563119369611
  },
  {
    "name": "마산내서",
    "address": "경남 창원시 마산회원구 내서읍 호계본동로 102",
    "category": "대신택배",
    "lat": 35.2668261012437,
    "lng": 128.516177848458
  },
  {
    "name": "창원동팔용",
    "address": "창원시 의창구 차상로150번길 38",
    "category": "대신택배",
    "lat": 35.235752906396,
    "lng": 128.636495806409
  },
  {
    "name": "창원웅남",
    "address": "창원시 성산구 완암로 1",
    "category": "대신택배",
    "lat": 35.2031815272648,
    "lng": 128.65911692904
  },
  {
    "name": "창원도계",
    "address": "창원시 의창구 태복산로 3번길 6",
    "category": "대신택배",
    "lat": 35.2529268957251,
    "lng": 128.638818705723
  },
  {
    "name": "창원가음정",
    "address": "창원시 성산구 가양로 66",
    "category": "대신택배",
    "lat": 35.2075876827203,
    "lng": 128.701263444752
  },
  {
    "name": "창원남팔용",
    "address": "창원시 의창구 사화로 248",
    "category": "대신택배",
    "lat": 35.2449178976654,
    "lng": 128.630394532811
  },
  {
    "name": "창원중앙",
    "address": "경남 창원시 성산구 남면로 319",
    "category": "대신택배",
    "lat": 35.2220281654618,
    "lng": 128.649764065234
  },
  {
    "name": "창원차룡",
    "address": "창원시 의창구 무역로581번길 30",
    "category": "대신택배",
    "lat": 35.2315165048691,
    "lng": 128.638321892728
  },
  {
    "name": "창원대산",
    "address": "창원시 의창구 대산면 유등로 11",
    "category": "대신택배",
    "lat": 35.3270190425455,
    "lng": 128.716109207955
  },
  {
    "name": "SKF베어링",
    "address": "창원시 성산구 비음로4번길 16",
    "category": "대신택배",
    "lat": 35.2276083212907,
    "lng": 128.697552890434
  },
  {
    "name": "창원북면",
    "address": "경남 창원시 의창구 북면 동전리 119-6",
    "category": "대신택배",
    "lat": 35.3167302930519,
    "lng": 128.600129471498
  },
  {
    "name": "진해",
    "address": "창원시 진해구 진해대로1041번길 20",
    "category": "대신택배",
    "lat": 35.1364992810028,
    "lng": 128.710353883585
  },
  {
    "name": "창원신촌",
    "address": "창원시 성산구 월림로65번길 6-11",
    "category": "대신택배",
    "lat": 35.207925852232,
    "lng": 128.641326880852
  },
  {
    "name": "통영무전",
    "address": "통영시 무전7길 152",
    "category": "대신택배",
    "lat": 34.8646600796347,
    "lng": 128.42276329346
  },
  {
    "name": "통영죽림",
    "address": "통영시 광도면 조암길78",
    "category": "대신택배",
    "lat": 34.8876350450062,
    "lng": 128.415183456019
  },
  {
    "name": "경남의령",
    "address": "경상남도 함안군 군북면 강둑아랫길 55-30",
    "category": "대신택배",
    "lat": 35.3005250347634,
    "lng": 128.296560144203
  },
  {
    "name": "창녕남지",
    "address": "경상남도 창녕군 남지읍 남지리 967-6",
    "category": "대신택배",
    "lat": 35.3914396599134,
    "lng": 128.473594361012
  },
  {
    "name": "김해테크노",
    "address": "경상남도 김해시 진영읍 서부로396번길 8",
    "category": "대신택배",
    "lat": 35.2676848497517,
    "lng": 128.75326783864
  },
  {
    "name": "거창",
    "address": "경남 거창군 거창읍 소만3길 43",
    "category": "대신택배",
    "lat": 35.6940746740399,
    "lng": 127.921961834795
  },
  {
    "name": "경남고성",
    "address": "경상남도 고성군 고성읍 교사4길 95-49",
    "category": "대신택배",
    "lat": 34.9805229684231,
    "lng": 128.304017231113
  },
  {
    "name": "남해",
    "address": "남해군 남해읍 스포츠로 132",
    "category": "대신택배",
    "lat": 34.8252235477885,
    "lng": 127.89109890321
  },
  {
    "name": "창녕읍",
    "address": "경남 창녕군 창녕읍 조산1길 36",
    "category": "대신택배",
    "lat": 35.5377547917068,
    "lng": 128.484648557687
  },
  {
    "name": "하동",
    "address": "하동군 하동읍군청로 123",
    "category": "대신택배",
    "lat": 35.0619657069067,
    "lng": 127.760268105256
  },
  {
    "name": "함안가야",
    "address": "함안군 가야읍 삼봉로 521-5",
    "category": "대신택배",
    "lat": 35.2911026386381,
    "lng": 128.392115472251
  },
  {
    "name": "함안칠서",
    "address": "경남 함안군 칠서면 공단상가2길 69",
    "category": "대신택배",
    "lat": 35.3588668335461,
    "lng": 128.484696524339
  },
  {
    "name": "경남함양",
    "address": "경남 함양군 함양읍 교산리 240",
    "category": "대신택배",
    "lat": 35.5264166458382,
    "lng": 127.731480333594
  },
  {
    "name": "합천",
    "address": "합천군 대양면 대야로 677",
    "category": "대신택배",
    "lat": 35.5494273055675,
    "lng": 128.163176342346
  },
  {
    "name": "산청",
    "address": "경남 산청군 단성면 강누방목로2번길 14",
    "category": "대신택배",
    "lat": 35.3062621527293,
    "lng": 127.966547506278
  },
  {
    "name": "김해우계",
    "address": "경상남도 김해시 상동면 상동로373-1",
    "category": "대신택배",
    "lat": 35.3061176345021,
    "lng": 128.911766157195
  },
  {
    "name": "부산사무소",
    "address": "경남 김해시 상동면 동북로 465",
    "category": "대신택배",
    "lat": 35.3132609568358,
    "lng": 128.967743161965
  },
  {
    "name": "마산진북",
    "address": "창원시 마산합포구 진북면 망곡리177",
    "category": "대신택배",
    "lat": 35.1299259720822,
    "lng": 128.486805998595
  },
  {
    "name": "김해신천",
    "address": "경상남도 김해시 한림면 용덕로23번길 49",
    "category": "대신택배",
    "lat": 35.2839689055459,
    "lng": 128.833180269666
  },
  {
    "name": "창원물류",
    "address": "창원시 의창구 차상로150번길 38",
    "category": "대신택배",
    "lat": 35.235752906396,
    "lng": 128.636495806409
  },
  {
    "name": "창원서브",
    "address": "경상남도 창원시 성산구 완암로1",
    "category": "대신택배",
    "lat": 35.2031815272648,
    "lng": 128.65911692904
  },
  {
    "name": "창녕대합",
    "address": "경남 창녕군 대합면 대합산업단지로 107-17",
    "category": "대신택배",
    "lat": 35.6205991200897,
    "lng": 128.437502871812
  },
  {
    "name": "사천물류",
    "address": "경상남도 사천시 사남면 항공로130",
    "category": "대신택배",
    "lat": 35.0755642205175,
    "lng": 128.072525029492
  },
  {
    "name": "양산가촌",
    "address": "경남 양산시 물금읍 가촌서로 36",
    "category": "대신택배",
    "lat": 35.3205724274823,
    "lng": 128.991106675799
  },
  {
    "name": "함안칠원",
    "address": "경상남도 함안군 칠원읍 삼칠로 180",
    "category": "대신택배",
    "lat": 35.3113163091975,
    "lng": 128.516116881244
  },
  {
    "name": "부산동녹산",
    "address": "부산시 강서구 송정길 89",
    "category": "대신택배",
    "lat": 35.1007392930794,
    "lng": 128.843137963717
  },
  {
    "name": "부산대저",
    "address": "부산시 강서구 경전철로 36",
    "category": "대신택배",
    "lat": 35.1833629691965,
    "lng": 128.956549980746
  },
  {
    "name": "부산남녹산",
    "address": "부산시 강서구 녹산산단262로50번길 40 툴마트 5동 501호",
    "category": "대신택배",
    "lat": 35.0848099887495,
    "lng": 128.841931843456
  },
  {
    "name": "부산지사",
    "address": "부산광역시 강서구 미음산단로127번길 9",
    "category": "대신택배",
    "lat": 35.1365223288049,
    "lng": 128.857388858085
  },
  {
    "name": "부산명지",
    "address": "부산시 강서구 새진목길 38",
    "category": "대신택배",
    "lat": 35.1155691401285,
    "lng": 128.921397183019
  },
  {
    "name": "부산화전",
    "address": "부산시 강서구 화전산단4로6번길 39",
    "category": "대신택배",
    "lat": 35.1092325624865,
    "lng": 128.87885390769
  },
  {
    "name": "부산강동",
    "address": "부산광역시 강서구 평강로 19",
    "category": "대신택배",
    "lat": 35.1988406776973,
    "lng": 128.928726072383
  },
  {
    "name": "서부산유통",
    "address": "부산시 강서구 유통단지1로 50 부산티플렉스 제212동 제101호",
    "category": "대신택배",
    "lat": 35.1703264548184,
    "lng": 128.95418180555
  },
  {
    "name": "부산금정",
    "address": "부산광역시 금정구 체육공원로 682",
    "category": "대신택배",
    "lat": 35.3013568684211,
    "lng": 129.11231090208
  },
  {
    "name": "부산금사",
    "address": "부산시 금정구 반송로 469",
    "category": "대신택배",
    "lat": 35.2159586548061,
    "lng": 129.115085342127
  },
  {
    "name": "부산대연",
    "address": "부산시 남구 신선로447번길 73",
    "category": "대신택배",
    "lat": 35.1261320487528,
    "lng": 129.096306278092
  },
  {
    "name": "부산동래",
    "address": "부산시 동래구 온천천로339번길 19",
    "category": "대신택배",
    "lat": 35.1949936042064,
    "lng": 129.090319071427
  },
  {
    "name": "부산범일",
    "address": "부산시 부산진구 자유평화로37번길 15-6",
    "category": "대신택배",
    "lat": 35.1422852249562,
    "lng": 129.063341373663
  },
  {
    "name": "부산서면",
    "address": "부산시 부산진구 동평로 267",
    "category": "대신택배",
    "lat": 35.1712801220139,
    "lng": 129.056384733977
  },
  {
    "name": "부산개금",
    "address": "부산시 부산진구 개금본동로 9번길 24호",
    "category": "대신택배",
    "lat": 35.157861942849,
    "lng": 129.024170502451
  },
  {
    "name": "부산전포",
    "address": "부산시 부산진구 전포대로162번가길 26",
    "category": "대신택배",
    "lat": 35.1520466249455,
    "lng": 129.06685047195
  },
  {
    "name": "부산구포",
    "address": "부산시 북구 사상로558번 가길 58",
    "category": "대신택배",
    "lat": 35.1964809650157,
    "lng": 128.991425896765
  },
  {
    "name": "부산괘법",
    "address": "부산광역시 사상구 새벽시장로 127",
    "category": "대신택배",
    "lat": 35.1541015340793,
    "lng": 128.987469042569
  },
  {
    "name": "부산학장",
    "address": "부산시 사상구 학감대로191번길 41",
    "category": "대신택배",
    "lat": 35.1483682771955,
    "lng": 128.986571860831
  },
  {
    "name": "부산덕포",
    "address": "부산시 사상구 사상로349번길 14",
    "category": "대신택배",
    "lat": 35.1760898972534,
    "lng": 128.983679205788
  },
  {
    "name": "부산감전1",
    "address": "부산시 사상구 새벽시장로29번길 28",
    "category": "대신택배",
    "lat": 35.1568818448171,
    "lng": 128.977962347099
  },
  {
    "name": "부산공구",
    "address": "부산시 사상구 광장로 4",
    "category": "대신택배",
    "lat": 35.1624280515444,
    "lng": 128.977024080483
  },
  {
    "name": "부산삼락",
    "address": "부산시 사상구 낙동대로1420번길 42",
    "category": "대신택배",
    "lat": 35.1861710091647,
    "lng": 128.980092725624
  },
  {
    "name": "부산엄궁",
    "address": "부산시 사상구 낙동대로 882번길 7-7",
    "category": "대신택배",
    "lat": 35.1396119274979,
    "lng": 128.970846248197
  },
  {
    "name": "부산유통",
    "address": "부산시 사상구 새벽로215번길 16",
    "category": "대신택배",
    "lat": 35.1608190306199,
    "lng": 128.983151205
  },
  {
    "name": "부산장림",
    "address": "부산시 사하구 장평로195번길 90",
    "category": "대신택배",
    "lat": 35.0837193506857,
    "lng": 128.968034324709
  },
  {
    "name": "부산하단",
    "address": "부산광역시 사하구 하신번영로 278",
    "category": "대신택배",
    "lat": 35.1057922540197,
    "lng": 128.958793699051
  },
  {
    "name": "부산다대포",
    "address": "부산시 사하구 장림동 산145-1",
    "category": "대신택배",
    "lat": 35.0761217363948,
    "lng": 128.955456204606
  },
  {
    "name": "부산구평",
    "address": "부산광역시 사하구 감천항로 221-22",
    "category": "대신택배",
    "lat": 35.0736923744462,
    "lng": 128.991876801303
  },
  {
    "name": "부산국시",
    "address": "부산시 서구 구덕로120번길 41",
    "category": "대신택배",
    "lat": 35.0984631414386,
    "lng": 129.023267902999
  },
  {
    "name": "부산수영",
    "address": "부산시 수영구 광일로29번길50",
    "category": "대신택배",
    "lat": 35.1604310896984,
    "lng": 129.110526163336
  },
  {
    "name": "부산연제",
    "address": "부산시 연제구 거제천로 123",
    "category": "대신택배",
    "lat": 35.1848914460645,
    "lng": 129.074853346703
  },
  {
    "name": "부산영도",
    "address": "부산시 영도구 봉래나루로 268",
    "category": "대신택배",
    "lat": 35.094971078788,
    "lng": 129.046925649691
  },
  {
    "name": "부산중앙",
    "address": "부산시 동구 중앙대로180번길 16-2",
    "category": "대신택배",
    "lat": 35.1127030265684,
    "lng": 129.040356102743
  },
  {
    "name": "부산해운대",
    "address": "부산광역시 해운대구 구남로8번길 37",
    "category": "대신택배",
    "lat": 35.1619974178999,
    "lng": 129.157578391264
  },
  {
    "name": "부산기장",
    "address": "부산시 기장군 기장읍 차성로 220",
    "category": "대신택배",
    "lat": 35.2370938158702,
    "lng": 129.213648341999
  },
  {
    "name": "부산정관",
    "address": "부산시 기장군 정관면 달산1길 50",
    "category": "대신택배",
    "lat": 35.3173058544801,
    "lng": 129.183496858975
  },
  {
    "name": "부산미음",
    "address": "부산광역시 강서구 범방3로30번길 5",
    "category": "대신택배",
    "lat": 35.1462836844595,
    "lng": 128.879956066965
  },
  {
    "name": "다낭",
    "address": "부산광역시 남구 우암동",
    "category": "대신택배",
    "lat": 35.1250127857502,
    "lng": 129.075854463096
  },
  {
    "name": "부산장안",
    "address": "부산 기장군 장안읍 반룡리 832-51",
    "category": "대신택배",
    "lat": 35.3333323615232,
    "lng": 129.26377118381
  },
  {
    "name": "박스코",
    "address": "부산광역시 사하구 신산로 134",
    "category": "대신택배",
    "lat": 35.0891569872671,
    "lng": 128.969757078373
  },
  {
    "name": "부산평강",
    "address": "부산광역시 강서구 공항로1309번길 187",
    "category": "대신택배",
    "lat": 35.2152214398503,
    "lng": 128.978401384016
  },
  {
    "name": "부산생곡",
    "address": "부산광역시 강서구 생곡산단1로5번길 3",
    "category": "대신택배",
    "lat": 35.1359881973867,
    "lng": 128.885466833311
  },
  {
    "name": "부산제일",
    "address": "부산광역시 사하구 다대로170번길 55",
    "category": "대신택배",
    "lat": 35.0873016413133,
    "lng": 128.971346821836
  },
  {
    "name": "광양중동",
    "address": "광양시 중마로 21",
    "category": "대신택배",
    "lat": 34.9265885529461,
    "lng": 127.686972142749
  },
  {
    "name": "광양칠성",
    "address": "광양시 광양읍 은장도1길 27",
    "category": "대신택배",
    "lat": 34.9786068466652,
    "lng": 127.581277052241
  },
  {
    "name": "광양태인",
    "address": "광양시 김시식지1길 28",
    "category": "대신택배",
    "lat": 34.9478672716869,
    "lng": 127.755356598467
  },
  {
    "name": "광양옥곡",
    "address": "광양시 옥곡면 신금2길 5",
    "category": "대신택배",
    "lat": 34.9788408126838,
    "lng": 127.712444810936
  },
  {
    "name": "나주이창",
    "address": "전라남도 나주시 이창택지길 25-27",
    "category": "대신택배",
    "lat": 34.9935253427595,
    "lng": 126.706012119516
  },
  {
    "name": "목포산정",
    "address": "목포시 산정동 1424-15",
    "category": "대신택배",
    "lat": 34.7867442470557,
    "lng": 126.398048975151
  },
  {
    "name": "목포하당",
    "address": "목포시 석현동 1093-4",
    "category": "대신택배",
    "lat": 34.8208194263436,
    "lng": 126.426718626019
  },
  {
    "name": "순천남정",
    "address": "순천시 남산6길 10",
    "category": "대신택배",
    "lat": 34.9407534458086,
    "lng": 127.491146075008
  },
  {
    "name": "순천연향",
    "address": "순천시 구암2길 11",
    "category": "대신택배",
    "lat": 34.9460407319829,
    "lng": 127.513005910271
  },
  {
    "name": "순천해룡",
    "address": "순천시 해룡면 해룡로 1043",
    "category": "대신택배",
    "lat": 34.9110000761934,
    "lng": 127.529872971762
  },
  {
    "name": "순천서면",
    "address": "순천시 원가곡길 4-31",
    "category": "대신택배",
    "lat": 34.9856143683716,
    "lng": 127.487142019414
  },
  {
    "name": "여수오림",
    "address": "여수시 만성로131",
    "category": "대신택배",
    "lat": 34.7718887928877,
    "lng": 127.710012847867
  },
  {
    "name": "여수신기",
    "address": "여수시 시청서4길 48-12",
    "category": "대신택배",
    "lat": 34.7580818195664,
    "lng": 127.660762131269
  },
  {
    "name": "여수봉산",
    "address": "여수시 봉산2로 13",
    "category": "대신택배",
    "lat": 34.7315181605234,
    "lng": 127.724296202276
  },
  {
    "name": "여수주삼",
    "address": "여수시 봉계동731-1",
    "category": "대신택배",
    "lat": 34.7828477491296,
    "lng": 127.666701995249
  },
  {
    "name": "여수율촌",
    "address": "순천시 해룡면 율촌산단4로 77-35",
    "category": "대신택배",
    "lat": 34.9013352959407,
    "lng": 127.585536916852
  },
  {
    "name": "강진읍",
    "address": "강진군 강진읍 청자로 75-7",
    "category": "대신택배",
    "lat": 34.6355983921328,
    "lng": 126.78207721726
  },
  {
    "name": "고흥읍",
    "address": "고흥군 고흥읍 고흥로 1927",
    "category": "대신택배",
    "lat": 34.620418479838,
    "lng": 127.294192097495
  },
  {
    "name": "고흥풍양",
    "address": "고흥군 풍양면 고흥로 1161",
    "category": "대신택배",
    "lat": 34.5756414360762,
    "lng": 127.240506322347
  },
  {
    "name": "고흥녹동",
    "address": "전남 고흥군 도양읍 녹동신항8길 5-10",
    "category": "대신택배",
    "lat": 34.5280351455874,
    "lng": 127.141358617085
  },
  {
    "name": "곡성",
    "address": "곡성군 곡성읍 학교로 36",
    "category": "대신택배",
    "lat": 35.2797900954421,
    "lng": 127.288576035283
  },
  {
    "name": "구례",
    "address": "구례군 구례읍 봉성로 146-1",
    "category": "대신택배",
    "lat": 35.2154159429309,
    "lng": 127.465147412934
  },
  {
    "name": "전남담양",
    "address": "담양군 담양읍 지침리99-25",
    "category": "대신택배",
    "lat": 35.3186609944662,
    "lng": 126.989283190922
  },
  {
    "name": "무안읍",
    "address": "무안군 무안읍 불무로 5",
    "category": "대신택배",
    "lat": 34.9858356415255,
    "lng": 126.475447489465
  },
  {
    "name": "무안삼향",
    "address": "무안군 삼향읍 삼향로 127-9",
    "category": "대신택배",
    "lat": 34.8236581447922,
    "lng": 126.448332309294
  },
  {
    "name": "벌교",
    "address": "보성군 벌교읍 채동선로 490",
    "category": "대신택배",
    "lat": 34.8589571758211,
    "lng": 127.327790313803
  },
  {
    "name": "보성",
    "address": "보성군 보성읍 봉화로 34-1",
    "category": "대신택배",
    "lat": 34.7628122002099,
    "lng": 127.077324597093
  },
  {
    "name": "영광읍",
    "address": "영광군 영광읍 함영로 3462-20",
    "category": "대신택배",
    "lat": 35.2600502657947,
    "lng": 126.507889181933
  },
  {
    "name": "전남영암",
    "address": "낭주로 150-13",
    "category": "대신택배",
    "lat": 34.8019789276561,
    "lng": 126.702641385267
  },
  {
    "name": "영암대불",
    "address": "영암군 삼호읍 세관2길 37",
    "category": "대신택배",
    "lat": 34.7718428077176,
    "lng": 126.42500319129
  },
  {
    "name": "완도",
    "address": "완도읍 청해진서로 16",
    "category": "대신택배",
    "lat": 34.3145461147272,
    "lng": 126.741078267969
  },
  {
    "name": "전남장성",
    "address": "장성군 장성읍 청운2길 17",
    "category": "대신택배",
    "lat": 35.3023385224466,
    "lng": 126.781939308616
  },
  {
    "name": "장흥",
    "address": "장흥군 장흥읍 병천 2길 13",
    "category": "대신택배",
    "lat": 34.6789197918195,
    "lng": 126.91992510958
  },
  {
    "name": "진도",
    "address": "진도읍 교동2길 6",
    "category": "대신택배",
    "lat": 34.482388394441,
    "lng": 126.257362884939
  },
  {
    "name": "함평월야",
    "address": "함평군 해보면 구밀길 3",
    "category": "대신택배",
    "lat": 35.1783780671888,
    "lng": 126.612884549542
  },
  {
    "name": "함평읍",
    "address": "전라남도 함평군 함평읍 함장로 1057",
    "category": "대신택배",
    "lat": 35.0548272135348,
    "lng": 126.514035618464
  },
  {
    "name": "해남읍",
    "address": "해남군 해남읍 남부순환로 301",
    "category": "대신택배",
    "lat": 34.5760391130097,
    "lng": 126.585830480185
  },
  {
    "name": "화순",
    "address": "화순군 화순읍 진각로7",
    "category": "대신택배",
    "lat": 35.0523742141515,
    "lng": 126.985440310065
  },
  {
    "name": "목포대양",
    "address": "전남 목포시 대양산단로125번길 34-21",
    "category": "대신택배",
    "lat": 34.8353040466518,
    "lng": 126.401206194608
  },
  {
    "name": "영광염산",
    "address": "전라남도 영광군 염산면 향화로 658",
    "category": "대신택배",
    "lat": 35.213097103045,
    "lng": 126.377184953246
  },
  {
    "name": "영암삼호",
    "address": "전라남도 영암군 삼호읍 세가래로 82",
    "category": "대신택배",
    "lat": 34.7483000637173,
    "lng": 126.473688745196
  },
  {
    "name": "신안지도",
    "address": "전라남도 신안군 지도읍 서촌길 28",
    "category": "대신택배",
    "lat": 35.0606066789803,
    "lng": 126.206481532048
  },
  {
    "name": "신안압해",
    "address": "전라남도 신안군 압해읍 압해로 797",
    "category": "대신택배",
    "lat": 34.8615456967118,
    "lng": 126.320574079749
  },
  {
    "name": "나주혁신",
    "address": "전남 나주시 산포면 산남로32",
    "category": "대신택배",
    "lat": 35.0409344413692,
    "lng": 126.817830213017
  },
  {
    "name": "고흥도덕",
    "address": "전남 고흥군 도덕면 학동2길 26",
    "category": "대신택배",
    "lat": 34.567710053831,
    "lng": 127.176252424684
  },
  {
    "name": "고흥동강",
    "address": "전라남도 고흥군 동강면 병풍3길 11-9",
    "category": "대신택배",
    "lat": 34.7855967423645,
    "lng": 127.340520901801
  },
  {
    "name": "여수소라",
    "address": "전남 여수시 소라면 덕양리 575-23",
    "category": "대신택배",
    "lat": 34.7817883667701,
    "lng": 127.633878146739
  },
  {
    "name": "장성남면",
    "address": "전남 장성군 남면 나노산단로 55",
    "category": "대신택배",
    "lat": 35.2339740993426,
    "lng": 126.831092327289
  },
  {
    "name": "강진마량",
    "address": "전라남도 강진군 마량면 삼마로113",
    "category": "대신택배",
    "lat": 34.4516923987082,
    "lng": 126.830511523278
  },
  {
    "name": "나주삼도",
    "address": "전라남도 나주시 삼도동 청동길 27",
    "category": "대신택배",
    "lat": 35.0380991409934,
    "lng": 126.724162136352
  },
  {
    "name": "여수센터",
    "address": "전라남도 여수시 율촌면 여동리364",
    "category": "대신택배",
    "lat": 34.8978752251466,
    "lng": 127.599630802045
  },
  {
    "name": "제주용담",
    "address": "제주특별자치도 제주시 다호동길 10",
    "category": "대신택배",
    "lat": 33.500386740476,
    "lng": 126.496330828116
  },
  {
    "name": "서귀포",
    "address": "제주특별자치도 서귀포시 중앙로72번길 49",
    "category": "대신택배",
    "lat": 33.2526711562756,
    "lng": 126.566052047034
  },
  {
    "name": "제주화북",
    "address": "제주특별자치도 제주시 선반남1길 73",
    "category": "대신택배",
    "lat": 33.5142989848963,
    "lng": 126.567299388212
  },
  {
    "name": "제주사라봉",
    "address": "제주특별자치도 제주시 사라봉7길 39",
    "category": "대신택배",
    "lat": 33.5147373430899,
    "lng": 126.539904057806
  },
  {
    "name": "제주한경",
    "address": "제주특별자치도 제주시 한경면 두신로21-19",
    "category": "대신택배",
    "lat": 33.3445393214939,
    "lng": 126.181870911155
  },
  {
    "name": "제주조천",
    "address": "제주시 조천읍 중산간동로 560",
    "category": "대신택배",
    "lat": 33.5010882561305,
    "lng": 126.645758090943
  },
  {
    "name": "제주애월",
    "address": "제주특별자치도 제주시 애월읍 애원로 90",
    "category": "대신택배",
    "lat": 33.457250074071,
    "lng": 126.323577343925
  },
  {
    "name": "제주성산",
    "address": "제주특별자치도 서귀포시 성산읍 수산서남로 64",
    "category": "대신택배",
    "lat": 33.4473421054928,
    "lng": 126.878810107687
  },
  {
    "name": "파주광탄",
    "address": "경기 파주시 광탄면 혜음로 660",
    "category": "대신택배",
    "lat": 37.7479406506896,
    "lng": 126.869008005432
  },
  {
    "name": "수원물류",
    "address": "경기 의왕시 금천말안길 31",
    "category": "대신택배",
    "lat": 37.3284900248952,
    "lng": 126.948922509431
  }
]