[
  {
    "name": "강릉교동657",
    "address": "강원도 강릉시 율곡로 3067",
    "category": "경동택배",
    "lat": 37.7752285951463,
    "lng": 128.887495271682
  },
  {
    "name": "강릉내곡443",
    "address": "강원도 강릉시 강변로172번안길 5",
    "category": "경동택배",
    "lat": 37.7458718580252,
    "lng": 128.887544687522
  },
  {
    "name": "강릉내곡56",
    "address": "강원도 강릉시 강변로172번길 10",
    "category": "경동택배",
    "lat": 37.7456193331536,
    "lng": 128.887900053488
  },
  {
    "name": "강릉주문진교항106",
    "address": "강원도 강릉시 주문진읍 구보건소뒤길 14-2",
    "category": "경동택배",
    "lat": 37.8847844776217,
    "lng": 128.824164557387
  },
  {
    "name": "강릉포남1173",
    "address": "강원도 강릉시 성덕포남로182번길 11",
    "category": "경동택배",
    "lat": 37.7688583014913,
    "lng": 128.909796158217
  },
  {
    "name": "강원고성간성신안162",
    "address": "강원도 고성군 간성읍 간성로 17-4",
    "category": "경동택배",
    "lat": 38.3784669933661,
    "lng": 128.472820725579
  },
  {
    "name": "강원고성거진447",
    "address": "강원도 고성군 거진읍 거탄진로 9",
    "category": "경동택배",
    "lat": 38.438080573243,
    "lng": 128.448637977769
  },
  {
    "name": "강원양구송청71",
    "address": "강원도 양구군 양구읍 우정로 14",
    "category": "경동택배",
    "lat": 38.0926571763766,
    "lng": 127.995481688103
  },
  {
    "name": "강원양양청곡90",
    "address": "강원도 양양군 양양읍 청곡길 51",
    "category": "경동택배",
    "lat": 38.0896046558266,
    "lng": 128.62853714383
  },
  {
    "name": "강원영월방절130",
    "address": "강원도 영월군 영월읍 잔다리길 2-3",
    "category": "경동택배",
    "lat": 37.1850148273049,
    "lng": 128.455452357512
  },
  {
    "name": "강원인제북면원통462",
    "address": "강원도 인제군 북면 금강로4번길 9",
    "category": "경동택배",
    "lat": 38.1222732836215,
    "lng": 128.209239595703
  },
  {
    "name": "강원정선남면무릉822",
    "address": "강원도 정선군 남면 무릉2로 55",
    "category": "경동택배",
    "lat": 37.2502232815693,
    "lng": 128.775717944049
  },
  {
    "name": "강원정선봉양33",
    "address": "강원도 정선군 정선읍 녹송로 57-28",
    "category": "경동택배",
    "lat": 37.3825818511159,
    "lng": 128.669678684665
  },
  {
    "name": "강원철원갈말군탄473",
    "address": "강원도 철원군 갈말읍 호국로 4925",
    "category": "경동택배",
    "lat": 38.160324853676,
    "lng": 127.311431974161
  },
  {
    "name": "강원평창대화1001",
    "address": "강원도 평창군 대화면 대화4길 20",
    "category": "경동택배",
    "lat": 37.5011846094145,
    "lng": 128.45467496782
  },
  {
    "name": "강원평창봉평원길190",
    "address": "강원도 평창군 봉평면 보래령로 39-3",
    "category": "경동택배",
    "lat": 37.6227245252222,
    "lng": 128.377722552807
  },
  {
    "name": "강원평창중리150",
    "address": "강원도 평창군 평창읍 노성로 225-14",
    "category": "경동택배",
    "lat": 37.3694533724308,
    "lng": 128.402859009364
  },
  {
    "name": "강원평창진부하진부681",
    "address": "강원도 평창군 진부면 경강로 3424",
    "category": "경동택배",
    "lat": 37.6388974639605,
    "lng": 128.544172385161
  },
  {
    "name": "강원홍천상오안74",
    "address": "강원도 홍천군 홍천읍 설악로 1005",
    "category": "경동택배",
    "lat": 37.6567664335587,
    "lng": 127.824927244678
  },
  {
    "name": "강원홍천태학68",
    "address": "강원도 홍청군 홍천읍 태학마을길27",
    "category": "경동택배",
    "lat": 37.70357,
    "lng": 127.9005
  },
  {
    "name": "강원화천신읍651",
    "address": "강원도 화천군 화천읍 노신로 36",
    "category": "경동택배",
    "lat": 38.1145802023931,
    "lng": 127.700303594827
  },
  {
    "name": "강원횡성마산639",
    "address": "강원도 횡성군 횡성읍 한우로 453",
    "category": "경동택배",
    "lat": 37.4871871592554,
    "lng": 128.002086210008
  },
  {
    "name": "거제사등426",
    "address": "경상남도 거제시 사등면 사등2길 7",
    "category": "경동택배",
    "lat": 34.9028488953276,
    "lng": 128.553662551287
  },
  {
    "name": "거제연초오비138",
    "address": "경남 거제시 연초면 오비리 138",
    "category": "경동택배",
    "lat": 34.9010329124826,
    "lng": 128.63006453506
  },
  {
    "name": "거제연초죽토493",
    "address": "경상남도 거제시 연초면 야부길 11-1",
    "category": "경동택배",
    "lat": 34.9108273050202,
    "lng": 128.664662222394
  },
  {
    "name": "경기가평승안60",
    "address": "경기도 가평군 가평읍 가화로 257",
    "category": "경동택배",
    "lat": 37.8411219923716,
    "lng": 127.505761632801
  },
  {
    "name": "경기가평청평188",
    "address": "경기도 가평군 청평면 잠곡로 69-9",
    "category": "경동택배",
    "lat": 37.738372248505,
    "lng": 127.426455459633
  },
  {
    "name": "경기광주곤지암봉현621",
    "address": "경기도 광주시 곤지암읍 신만로 142",
    "category": "경동택배",
    "lat": 37.3405377499818,
    "lng": 127.39244548323
  },
  {
    "name": "경기광주곤지암신대48",
    "address": "경기도 광주시 곤지암읍 대석동길 31",
    "category": "경동택배",
    "lat": 37.3538873922646,
    "lng": 127.339536085177
  },
  {
    "name": "경기광주곤지암오향426",
    "address": "경기 광주시 곤지암읍 구수동길 4",
    "category": "경동택배",
    "lat": 37.3335647235338,
    "lng": 127.37476818657
  },
  {
    "name": "경기광주곤지암장심339",
    "address": "경기도 광주시 곤지암읍 광여로 680-12",
    "category": "경동택배",
    "lat": 37.3728980077354,
    "lng": 127.404468951536
  },
  {
    "name": "경기광주능평175",
    "address": "경기 광주시 능평동 175-9",
    "category": "경동택배",
    "lat": 37.3463703379884,
    "lng": 127.173777548703
  },
  {
    "name": "경기광주도척노곡25",
    "address": "경기도 광주시 도척로 461",
    "category": "경동택배",
    "lat": 37.3120312309921,
    "lng": 127.334000030528
  },
  {
    "name": "경기광주도척유정234",
    "address": "경기도 광주시 도척면 마도로 273",
    "category": "경동택배",
    "lat": 37.2951265367052,
    "lng": 127.331879529342
  },
  {
    "name": "경기광주매산715",
    "address": "경기 광주시 매산동 715-20",
    "category": "경동택배",
    "lat": 37.3608451800207,
    "lng": 127.244936555367
  },
  {
    "name": "경기광주목동22",
    "address": "경기도 광주시 광남안로 112-1",
    "category": "경동택배",
    "lat": 37.3867650352224,
    "lng": 127.214592204709
  },
  {
    "name": "경기광주문형689",
    "address": "경기 광주시 문형동 689-2",
    "category": "경동택배",
    "lat": 37.3427755106101,
    "lng": 127.19942261793
  },
  {
    "name": "경기광주장지224",
    "address": "경기도 광주시 포은대로 641",
    "category": "경동택배",
    "lat": 37.3838132163227,
    "lng": 127.242420982462
  },
  {
    "name": "경기광주초월늑현16",
    "address": "경기도 광주시 초월읍 산수로58번길 16",
    "category": "경동택배",
    "lat": 37.3671227442621,
    "lng": 127.319868523933
  },
  {
    "name": "경기광주초월신월474",
    "address": "경기도 광주시 초월읍 두월길 3",
    "category": "경동택배",
    "lat": 37.4055196466839,
    "lng": 127.309358416321
  },
  {
    "name": "경기광주초월용수355",
    "address": "경기도 광주시 초월읍 장담길 88-28",
    "category": "경동택배",
    "lat": 37.3781080902593,
    "lng": 127.307816063406
  },
  {
    "name": "경기광주초월용수357",
    "address": "경기도 광주시 초월읍 장담길 88-26",
    "category": "경동택배",
    "lat": 37.3776380266585,
    "lng": 127.306914965234
  },
  {
    "name": "경기광주초월지월599",
    "address": "경기 광주시 초월읍 지월리 599-16",
    "category": "경동택배",
    "lat": 37.4147767314176,
    "lng": 127.289158965208
  },
  {
    "name": "경기광주태전350",
    "address": "경기도 광주시 광남안로 22-1",
    "category": "경동택배",
    "lat": 37.3930305069237,
    "lng": 127.221364657126
  },
  {
    "name": "경기광주태전363",
    "address": "경기도 광주시 고불로 131",
    "category": "경동택배",
    "lat": 37.3935301507069,
    "lng": 127.223553001299
  },
  {
    "name": "경기양평오빈314",
    "address": "경기도 양평군 양평읍 안산길 53-3",
    "category": "경동택배",
    "lat": 37.5076727845265,
    "lng": 127.466381725448
  },
  {
    "name": "경기양평용문금곡640",
    "address": "경기도 양평군 용문면 용문로 640",
    "category": "경동택배",
    "lat": 37.5029753886055,
    "lng": 127.613117540785
  },
  {
    "name": "경기연천전곡289",
    "address": "경기도 연천군 전곡읍 은대성로 63-6",
    "category": "경동택배",
    "lat": 38.0212443462961,
    "lng": 127.063081443923
  },
  {
    "name": "경남거창대동987",
    "address": "경상남도 거창군 거창읍 소만3길 37",
    "category": "경동택배",
    "lat": 35.6940829011992,
    "lng": 127.921852554626
  },
  {
    "name": "경남거창송정1098",
    "address": "경상남도 거창군 거창읍 송정리 1098-11",
    "category": "경동택배",
    "lat": 35.6802537069696,
    "lng": 127.89943816221
  },
  {
    "name": "경남고성송학237",
    "address": "경상남도 고성군 고성읍 동외로 198번길 98-11",
    "category": "경동택배",
    "lat": 34.9790322635618,
    "lng": 128.331802022578
  },
  {
    "name": "경남고성율대785",
    "address": "경남 고성군 고성읍 율대리 785-1",
    "category": "경동택배",
    "lat": 34.9679579628767,
    "lng": 128.333082252714
  },
  {
    "name": "경남남해평리1439",
    "address": "경상남도 남해군 남해읍 스포츠로 185-1",
    "category": "경동택배",
    "lat": 34.8215408413279,
    "lng": 127.888149077964
  },
  {
    "name": "경남산청단성610",
    "address": "경남 산청군 단성면 성내리 610",
    "category": "경동택배",
    "lat": 35.2948915464461,
    "lng": 127.956040908808
  },
  {
    "name": "경남의령무전585",
    "address": "경남 의령군 의령읍 무전리 585",
    "category": "경동택배",
    "lat": 35.3263645394073,
    "lng": 128.274256740556
  },
  {
    "name": "경남창녕남지993",
    "address": "경상남도 창녕군 남지읍 남지중앙로 93",
    "category": "경동택배",
    "lat": 35.3921498955432,
    "lng": 128.479751315837
  },
  {
    "name": "경남창녕대합대동924",
    "address": "경상남도 창녕군 대합면 대동월포로 147-2",
    "category": "경동택배",
    "lat": 35.6111320931754,
    "lng": 128.448594016784
  },
  {
    "name": "경남창녕대합등지464",
    "address": "경남 창녕군 대합면 등지리 464-1",
    "category": "경동택배",
    "lat": 35.6068637750424,
    "lng": 128.466128788892
  },
  {
    "name": "경남창녕직교694",
    "address": "경상남도 창녕군 창녕읍 우포유어농로 642-5",
    "category": "경동택배",
    "lat": 35.5348372517636,
    "lng": 128.477383111976
  },
  {
    "name": "경남하동두곡687",
    "address": "경상남도 하동군 하동읍 화심길 8",
    "category": "경동택배",
    "lat": 35.0804639994988,
    "lng": 127.738643417198
  },
  {
    "name": "경남함안군북월촌294",
    "address": "경상남도 함안군 군북면 함안산단로 46",
    "category": "경동택배",
    "lat": 35.2888170216001,
    "lng": 128.311238292583
  },
  {
    "name": "경남함안칠서대치332",
    "address": "경상남도 함안군 칠서면 칠서공단상가1길 78",
    "category": "경동택배",
    "lat": 35.3585123857536,
    "lng": 128.48368352602
  },
  {
    "name": "경남함양서상대남1787",
    "address": "경상남도 함양군 서상면 칠형정뒷길 46",
    "category": "경동택배",
    "lat": 35.6842017429027,
    "lng": 127.688478299212
  },
  {
    "name": "경남함양이은349",
    "address": "경상남도 함양군 함양읍 한들로 58",
    "category": "경동택배",
    "lat": 35.5126714832207,
    "lng": 127.728304846786
  },
  {
    "name": "경남합천1614",
    "address": "경상남도 합천군 합천읍 대야로 922",
    "category": "경동택배",
    "lat": 35.5706297635081,
    "lng": 128.164157184769
  },
  {
    "name": "경북고령다산상곡151",
    "address": "경상북도 고령군 다산면 상곡3길 3",
    "category": "경동택배",
    "lat": 35.8247550236688,
    "lng": 128.449793340784
  },
  {
    "name": "경북고령성산기산395",
    "address": "경상북도 고령군 성산면 성산로 650",
    "category": "경동택배",
    "lat": 35.7435083719445,
    "lng": 128.334296308415
  },
  {
    "name": "경북봉화해저162",
    "address": "경상북도 봉화군 봉화읍 봉화로 1072-1 (역 하치장)",
    "category": "경동택배",
    "lat": 36.8917772854023,
    "lng": 128.725157598786
  },
  {
    "name": "경북봉화해저162",
    "address": "경상북도 봉화군 봉화읍 봉화로 1072-1 (역하치장)",
    "category": "경동택배",
    "lat": 36.8917772854023,
    "lng": 128.725157598786
  },
  {
    "name": "경북성주선남도성794",
    "address": "경상북도 성주군 선남면 선노로 22",
    "category": "경동택배",
    "lat": 35.8839049455867,
    "lng": 128.37358182762
  },
  {
    "name": "경북성주예산616",
    "address": "경상북도 성주군 성주읍 성주순환로 145",
    "category": "경동택배",
    "lat": 35.9276465696373,
    "lng": 128.284743339899
  },
  {
    "name": "경북성주학산851",
    "address": "경상북도 성주군 성주읍 성주산업단지로 57-16",
    "category": "경동택배",
    "lat": 35.9361954374539,
    "lng": 128.289081990553
  },
  {
    "name": "경북영덕영해벌영2",
    "address": "경상북도 영덕군 양해면 예주목은길 60",
    "category": "경동택배",
    "lat": 36.54029,
    "lng": 129.40311
  },
  {
    "name": "경북영덕우곡180",
    "address": "경상북도 영덕군 영덕읍 영덕로 120-1",
    "category": "경동택배",
    "lat": 36.4054844305116,
    "lng": 129.375770745073
  },
  {
    "name": "경북영양동부545",
    "address": "경북 영양군 영양읍 황용천길 61",
    "category": "경동택배",
    "lat": 36.6666012516933,
    "lng": 129.115015620874
  },
  {
    "name": "경북예천청복834",
    "address": "경상북도 예천군 예천읍 양궁로 94",
    "category": "경동택배",
    "lat": 36.6446683007264,
    "lng": 128.462786643159
  },
  {
    "name": "경북울릉도",
    "address": "경상북도 울릉군 울릉읍 울릉순환로 785-17",
    "category": "경동택배",
    "lat": 37.4618398736975,
    "lng": 130.876447153112
  },
  {
    "name": "경북울진읍남732",
    "address": "경상북도 울진군 울진읍 대흥신림로 1316",
    "category": "경동택배",
    "lat": 36.9872250966499,
    "lng": 129.386058047899
  },
  {
    "name": "경북울진후포삼율556",
    "address": "경상북도 울진군 후포면 후포삼율로 197",
    "category": "경동택배",
    "lat": 36.6875479171934,
    "lng": 129.441555919653
  },
  {
    "name": "경북의성봉양구미600",
    "address": "경상북도 의성군 봉양면 경북대로 4743",
    "category": "경동택배",
    "lat": 36.3089404836627,
    "lng": 128.599089833454
  },
  {
    "name": "경북의성봉양구미600",
    "address": "경북 의성군 봉양면 경북대로 4743",
    "category": "경동택배",
    "lat": 36.3089404836627,
    "lng": 128.599089833454
  },
  {
    "name": "경북청도원정606",
    "address": "경상북도 청도군 청도읍 중앙로 121-1",
    "category": "경동택배",
    "lat": 35.6485121785394,
    "lng": 128.755611319057
  },
  {
    "name": "경북청송부남대전645",
    "address": "경상북도 청송군 부남면 대전로 85",
    "category": "경동택배",
    "lat": 36.3429095409726,
    "lng": 129.06146052142
  },
  {
    "name": "경북청송진보진안672",
    "address": "경상북도 청송군 진보면 청송로6315-6",
    "category": "경동택배",
    "lat": 36.5196872053056,
    "lng": 129.036644396132
  },
  {
    "name": "경북칠곡가산송학480",
    "address": "경북 칠곡군 가산면 송학리 480-1",
    "category": "경동택배",
    "lat": 36.1011991267184,
    "lng": 128.519050762698
  },
  {
    "name": "경북칠곡동명송산32",
    "address": "경상북도 칠곡군 동명면 송산11길 41",
    "category": "경동택배",
    "lat": 35.9819376742086,
    "lng": 128.550398638492
  },
  {
    "name": "경북칠곡북삼율리710",
    "address": "경상북도 칠곡군 북삼읍 외율6길 36",
    "category": "경동택배",
    "lat": 36.0529373478878,
    "lng": 128.341062065185
  },
  {
    "name": "경북칠곡석적남율1061",
    "address": "경상북도 칠곡군 석적읍 남율로 3길 23",
    "category": "경동택배",
    "lat": 36.0660934659741,
    "lng": 128.403081614303
  },
  {
    "name": "경북칠곡약목관호879",
    "address": "경상북도 칠곡군 약목면 칠곡대로 1114",
    "category": "경동택배",
    "lat": 36.0030755977239,
    "lng": 128.390004082375
  },
  {
    "name": "경북칠곡왜관금산448",
    "address": "경상북도 칠곡군 왜관읍 공단로 111",
    "category": "경동택배",
    "lat": 35.9646160544755,
    "lng": 128.409065809466
  },
  {
    "name": "경북칠곡왜관금산986",
    "address": "경상북도 칠곡군 왜관읍 공단로4길 10-5",
    "category": "경동택배",
    "lat": 35.9677473659535,
    "lng": 128.418786236836
  },
  {
    "name": "경북칠곡왜관낙산229",
    "address": "경상북도 칠곡군 왜관읍 2산업단지1길 177",
    "category": "경동택배",
    "lat": 35.9461832902537,
    "lng": 128.415994365801
  },
  {
    "name": "경북칠곡왜관낙산698",
    "address": "경상북도 칠곡군 왜관읍 2산업단지1길 56",
    "category": "경동택배",
    "lat": 35.9372509885718,
    "lng": 128.408868753297
  },
  {
    "name": "경북칠곡왜관삼청1019",
    "address": "경상북도 칠곡군 왜관읍 현대로 117",
    "category": "경동택배",
    "lat": 35.9862349776639,
    "lng": 128.433923715025
  },
  {
    "name": "경북칠곡지천금호353",
    "address": "경북 칠곡군 지천면 금호리 353-2",
    "category": "경동택배",
    "lat": 35.9491441731684,
    "lng": 128.443289704051
  },
  {
    "name": "경북칠곡지천신리574",
    "address": "경상북도 칠곡군 지천면 신동로 7길 63",
    "category": "경동택배",
    "lat": 35.9558089992185,
    "lng": 128.483085469366
  },
  {
    "name": "경산갑제319",
    "address": "경상북도 경산시 화랑로 119",
    "category": "경동택배",
    "lat": 35.825490909696,
    "lng": 128.765644220795
  },
  {
    "name": "경산자인교촌355",
    "address": "경북 경산시 자인면 교촌리 355-4",
    "category": "경동택배",
    "lat": 35.820768914552,
    "lng": 128.826227454645
  },
  {
    "name": "경산진량가야359",
    "address": "경상북도 경산시 진량읍 가야로 327",
    "category": "경동택배",
    "lat": 35.8500741187799,
    "lng": 128.800619660521
  },
  {
    "name": "경산진량선화266",
    "address": "경상북도 경산시 진량읍 일연로 678",
    "category": "경동택배",
    "lat": 35.8690089816268,
    "lng": 128.805473893686
  },
  {
    "name": "경산진량신상365",
    "address": "경상북도 경산시 진량읍 공단2로9길 5",
    "category": "경동택배",
    "lat": 35.8721386897194,
    "lng": 128.823309544051
  },
  {
    "name": "경산진량신제572",
    "address": "경상북도 경산시 진량읍 공단9로 9",
    "category": "경동택배",
    "lat": 35.8576717005793,
    "lng": 128.834614584852
  },
  {
    "name": "경산진량황제70",
    "address": "경상북도 경산시 진량읍 공단로 303",
    "category": "경동택배",
    "lat": 35.8585796414193,
    "lng": 128.82007479051
  },
  {
    "name": "경산하양대학93",
    "address": "경상북도 경산시 하양읍 지식산업로6길 38",
    "category": "경동택배",
    "lat": 35.9321267823821,
    "lng": 128.827532471232
  },
  {
    "name": "경주건천조전250",
    "address": "경상북도 경주시 건천읍 내서로 1180",
    "category": "경동택배",
    "lat": 35.8446313290396,
    "lng": 129.107538678765
  },
  {
    "name": "경주성동107",
    "address": "경상북도 경주시 양정로 144",
    "category": "경동택배",
    "lat": 35.8467677639454,
    "lng": 129.221302986122
  },
  {
    "name": "경주안강421",
    "address": "경상북도 경주시 안강읍 안현로 1494",
    "category": "경동택배",
    "lat": 35.9883426022188,
    "lng": 129.228112831437
  },
  {
    "name": "경주외동모화1232",
    "address": "경북 경주시 외동읍 모화리 1232",
    "category": "경동택배",
    "lat": 35.6815273420706,
    "lng": 129.329744730528
  },
  {
    "name": "경주외동석계545",
    "address": "경상북도 경주시 외동읍 석계리 545",
    "category": "경동택배",
    "lat": 35.6747022147549,
    "lng": 129.303528869442
  },
  {
    "name": "경주외동석계555",
    "address": "경상북도 경주시 외동읍 석계중리길8",
    "category": "경동택배",
    "lat": 35.6745454864288,
    "lng": 129.303817882516
  },
  {
    "name": "경주외동입실847",
    "address": "경상북도 경주시 외동읍 산업로 2202",
    "category": "경동택배",
    "lat": 35.7094740308641,
    "lng": 129.324680247629
  },
  {
    "name": "경주용강1443",
    "address": "경북 경주시 용강동 1443",
    "category": "경동택배",
    "lat": 35.8809608744372,
    "lng": 129.224880216774
  },
  {
    "name": "계룡금암396",
    "address": "충청남도 계룡시 서금암 5길74",
    "category": "경동택배",
    "lat": 36.2658419175208,
    "lng": 127.25007647099
  },
  {
    "name": "고양덕양내유426",
    "address": "경기도 고양시 덕양구 내유길 6",
    "category": "경동택배",
    "lat": 37.7179226042166,
    "lng": 126.849971728141
  },
  {
    "name": "고양덕양도내723",
    "address": "경기 고양시 덕양구 도내동 723-40",
    "category": "경동택배",
    "lat": 37.6113913317247,
    "lng": 126.855595987122
  },
  {
    "name": "고양덕양현천137",
    "address": "경기도 고양시 덕양구 대덕로 141번길 13",
    "category": "경동택배",
    "lat": 37.5932396316469,
    "lng": 126.866461903371
  },
  {
    "name": "고양일산동구문봉58",
    "address": "경기도 고양시 일산동구 지영로 32",
    "category": "경동택배",
    "lat": 37.7045432058767,
    "lng": 126.825399161364
  },
  {
    "name": "고양일산동구백석1115",
    "address": "경기도 고양시 일산동구 장항로71,가동",
    "category": "경동택배",
    "lat": 37.631224210498,
    "lng": 126.78650392296
  },
  {
    "name": "고양일산동구설문759",
    "address": "경기도 고양시 일산동구 고봉로 770번길 71-15 3동,4동",
    "category": "경동택배",
    "lat": 37.7207418517471,
    "lng": 126.795459919348
  },
  {
    "name": "고양일산동구장항543",
    "address": "경기도 고양시 일산동구 장대길 160-106",
    "category": "경동택배",
    "lat": 37.6445789920173,
    "lng": 126.763025519971
  },
  {
    "name": "고양일산서구가좌485",
    "address": "경기도 고양시 일산서구 덕산로 140",
    "category": "경동택배",
    "lat": 37.6939755671418,
    "lng": 126.718549938987
  },
  {
    "name": "고양일산서구구산367",
    "address": "경기도 고양시 일산서구 구산로116-1 라동",
    "category": "경동택배",
    "lat": 37.6938405576225,
    "lng": 126.704463858293
  },
  {
    "name": "공주신관9",
    "address": "충청남도 공주시 신금1길60",
    "category": "경동택배",
    "lat": 36.477068329182,
    "lng": 127.146439301642
  },
  {
    "name": "공주유구석남226",
    "address": "충청남도 공주시 유구읍 금계산로 20",
    "category": "경동택배",
    "lat": 36.5556338381835,
    "lng": 126.953279776633
  },
  {
    "name": "광명가학438",
    "address": "경기 광명시 광명로 192",
    "category": "경동택배",
    "lat": 37.4187940210797,
    "lng": 126.849333959298
  },
  {
    "name": "광명노온사676",
    "address": "경기도 광명시 노온사동 676",
    "category": "경동택배",
    "lat": 37.4310564130859,
    "lng": 126.846258206674
  },
  {
    "name": "광명일직9",
    "address": "경기 광명시 일직동 9-12",
    "category": "경동택배",
    "lat": 37.4279374210831,
    "lng": 126.893048345888
  },
  {
    "name": "광양도이433",
    "address": "전라남도 광양시 제철로 1326",
    "category": "경동택배",
    "lat": 34.9327241795443,
    "lng": 127.675171497438
  },
  {
    "name": "광양옥곡신금1507",
    "address": "전라남도 광양시 옥곡면 강변로 257",
    "category": "경동택배",
    "lat": 34.9688800743057,
    "lng": 127.725876624669
  },
  {
    "name": "광양익신741",
    "address": "전라남도 광양시 광양읍 익신산단1길 47",
    "category": "경동택배",
    "lat": 34.9536827755969,
    "lng": 127.60250198873
  },
  {
    "name": "광주광산고룡982",
    "address": "광주광역시 광산구 진곡산단6번로 25-31",
    "category": "경동택배",
    "lat": 35.2139371806686,
    "lng": 126.777343024106
  },
  {
    "name": "광주광산도천106",
    "address": "광주광역시 광산구 사암로 828",
    "category": "경동택배",
    "lat": 35.215007407192,
    "lng": 126.821744469036
  },
  {
    "name": "광주광산도천350",
    "address": "광주광역시 광산구 도천남길 34",
    "category": "경동택배",
    "lat": 35.2078766536266,
    "lng": 126.817935081578
  },
  {
    "name": "광주광산복룡365",
    "address": "광주광역시 광산구 동곡로 345",
    "category": "경동택배",
    "lat": 35.1133239229431,
    "lng": 126.778805165298
  },
  {
    "name": "광주광산송촌203",
    "address": "광주광역시 광산구 동곡로 644",
    "category": "경동택배",
    "lat": 35.1387806890725,
    "lng": 126.776614725888
  },
  {
    "name": "광주광산안청275",
    "address": "광주광역시 광산구 임곡로 677",
    "category": "경동택배",
    "lat": 35.2171678623059,
    "lng": 126.804411894935
  },
  {
    "name": "광주광산안청5",
    "address": "광주 광산구 안청동 5-18",
    "category": "경동택배",
    "lat": 35.2180238237005,
    "lng": 126.810213640195
  },
  {
    "name": "광주광산오선647",
    "address": "광주광역시 광산구 진곡산단2번로 47-57",
    "category": "경동택배",
    "lat": 35.200573362852,
    "lng": 126.790557990355
  },
  {
    "name": "광주광산옥동180",
    "address": "광주광역시 광산구 연산로 311",
    "category": "경동택배",
    "lat": 35.1231801508329,
    "lng": 126.762235826599
  },
  {
    "name": "광주광산우산220",
    "address": "광주 광산구 우산동 220-18",
    "category": "경동택배",
    "lat": 35.1437484141544,
    "lng": 126.821249241623
  },
  {
    "name": "광주광산월전68",
    "address": "광주광역시 광산구 동곡로 450",
    "category": "경동택배",
    "lat": 35.1228966114413,
    "lng": 126.779611638385
  },
  {
    "name": "광주광산하남1195",
    "address": "광주광역시 광산구 고봉로 61",
    "category": "경동택배",
    "lat": 35.1819111793058,
    "lng": 126.800469755457
  },
  {
    "name": "광주남구송하251",
    "address": "광주광역시 남구 송암로 78",
    "category": "경동택배",
    "lat": 35.1128264896878,
    "lng": 126.875477815085
  },
  {
    "name": "광주북구대촌958",
    "address": "광주광역시 북구 첨단벤처로108번길4",
    "category": "경동택배",
    "lat": 35.2311220126103,
    "lng": 126.859168501899
  },
  {
    "name": "광주북구동림915",
    "address": "광주 북구 동림동 915-11",
    "category": "경동택배",
    "lat": 35.1758755465084,
    "lng": 126.855744016944
  },
  {
    "name": "광주북구신안132",
    "address": "광주광역시 북구 무등로 189-3",
    "category": "경동택배",
    "lat": 35.1658577311642,
    "lng": 126.904416179848
  },
  {
    "name": "광주북구양산611",
    "address": "광주광역시 북구 하서로 241번길 26",
    "category": "경동택배",
    "lat": 35.1969689080488,
    "lng": 126.875168141265
  },
  {
    "name": "광주북구연제478",
    "address": "광주광역시 북구 연양로28번길 26",
    "category": "경동택배",
    "lat": 35.2050321243835,
    "lng": 126.870265837861
  },
  {
    "name": "광주북구용봉1420",
    "address": "광주광역시 북구 고운로13번길 3-4",
    "category": "경동택배",
    "lat": 35.182470825501,
    "lng": 126.899626469085
  },
  {
    "name": "광주북구운암1447",
    "address": "광주광역시 북구 하남대로819번길 17",
    "category": "경동택배",
    "lat": 35.1719366178921,
    "lng": 126.882247928631
  },
  {
    "name": "광주서구광천69",
    "address": "광주광역시 서구 죽봉대로112번길 6",
    "category": "경동택배",
    "lat": 35.1631296199144,
    "lng": 126.884484060577
  },
  {
    "name": "광주서구매월948A",
    "address": "광주광역시 서구 매월2로 53 산업용재유통센터 2-1동 8호",
    "category": "경동택배",
    "lat": 35.1162234875204,
    "lng": 126.860280288251
  },
  {
    "name": "구리사노452",
    "address": "경기도 구리시 동구릉로 520-7",
    "category": "경동택배",
    "lat": 37.6437292728024,
    "lng": 127.141557204041
  },
  {
    "name": "구리토평46",
    "address": "경기도 구리시 코스모스길213번길 82",
    "category": "경동택배",
    "lat": 37.581159880756,
    "lng": 127.154967961206
  },
  {
    "name": "구미거의467",
    "address": "경상북도 구미시 대학로 52-3",
    "category": "경동택배",
    "lat": 36.1408310959137,
    "lng": 128.396140487628
  },
  {
    "name": "구미고아오로396",
    "address": "경상북도 구미시 고아읍 선산대로1137",
    "category": "경동택배",
    "lat": 36.2183518624783,
    "lng": 128.31402477345
  },
  {
    "name": "구미광평186",
    "address": "경상북도 구미시 화신로4길 57",
    "category": "경동택배",
    "lat": 36.1123513173093,
    "lng": 128.357324386486
  },
  {
    "name": "구미구포335",
    "address": "경상북도 구미시 4공단로 6길 8",
    "category": "경동택배",
    "lat": 36.1317903575756,
    "lng": 128.430370073549
  },
  {
    "name": "구미금전701",
    "address": "경북 구미시 금전동 701-2",
    "category": "경동택배",
    "lat": 36.132974556642,
    "lng": 128.458289431317
  },
  {
    "name": "구미비산470",
    "address": "경상북도 구미시 비산로1안길 15",
    "category": "경동택배",
    "lat": 36.1208642588884,
    "lng": 128.375439293032
  },
  {
    "name": "구미산동봉산388",
    "address": "경상북도 구미시 산동면 산호대로 43길 8-10 A동",
    "category": "경동택배",
    "lat": 36.1384468299016,
    "lng": 128.44271715675
  },
  {
    "name": "구미산동적림107",
    "address": "경상북도 구미시 산동면 강동로 1005-36 1층",
    "category": "경동택배",
    "lat": 36.1673089972523,
    "lng": 128.435881408986
  },
  {
    "name": "구미원평1051",
    "address": "경상북도 구미시 산업로 238",
    "category": "경동택배",
    "lat": 36.1254537002303,
    "lng": 128.346457341468
  },
  {
    "name": "구미임수493",
    "address": "경상북도 구미시 3공단1로 289-6",
    "category": "경동택배",
    "lat": 36.108097419408,
    "lng": 128.401837588891
  },
  {
    "name": "구미임은515",
    "address": "경상북도 구미시 왕산로5길 14-35",
    "category": "경동택배",
    "lat": 36.0880257818973,
    "lng": 128.370186918216
  },
  {
    "name": "구미황상342",
    "address": "경상북도 구미시 수출대로521",
    "category": "경동택배",
    "lat": 36.1108406630547,
    "lng": 128.422012221007
  },
  {
    "name": "군산대야지경699",
    "address": "전라북도 군산시 대야면 대야관통로 46-6",
    "category": "경동택배",
    "lat": 35.9435850940792,
    "lng": 126.811108674679
  },
  {
    "name": "군산산북3617",
    "address": "전라북도 군산시 칠성2길 57",
    "category": "경동택배",
    "lat": 35.9602598230129,
    "lng": 126.674846164089
  },
  {
    "name": "군산소룡1552",
    "address": "전라북도 군산시 칠성4길 194",
    "category": "경동택배",
    "lat": 35.9722332476018,
    "lng": 126.677781024548
  },
  {
    "name": "군산소룡1603",
    "address": "전라북도 군산시 자유로 135-5",
    "category": "경동택배",
    "lat": 35.961315663544,
    "lng": 126.588263095643
  },
  {
    "name": "군산오식도665",
    "address": "전라북도 군산시 가도로 198",
    "category": "경동택배",
    "lat": 35.9640772059769,
    "lng": 126.56755585807
  },
  {
    "name": "군산오식도938",
    "address": "전라북도 군산시 가도안1길 57",
    "category": "경동택배",
    "lat": 35.9464397081231,
    "lng": 126.562972482461
  },
  {
    "name": "군산조촌671",
    "address": "전라북도 군산시 경촌안3길 23",
    "category": "경동택배",
    "lat": 35.9787882225223,
    "lng": 126.736465390427
  },
  {
    "name": "군포금정214",
    "address": "경기도 군포시 공단로 177",
    "category": "경동택배",
    "lat": 37.3612014730865,
    "lng": 126.949164376614
  },
  {
    "name": "군포당동48",
    "address": "경기도 군포시 공단로 131",
    "category": "경동택배",
    "lat": 37.3568686023781,
    "lng": 126.949142692307
  },
  {
    "name": "군포부곡451나",
    "address": "경기도 군포시 번영로 82 나동",
    "category": "경동택배",
    "lat": 37.3309459272918,
    "lng": 126.93722666624
  },
  {
    "name": "군포부곡451바",
    "address": "경기도 군포시 번영로 82 바동",
    "category": "경동택배",
    "lat": 37.3309459272918,
    "lng": 126.93722666624
  },
  {
    "name": "군포산본18",
    "address": "경기 군포시 산본동 18-32",
    "category": "경동택배",
    "lat": 37.376162572108,
    "lng": 126.943812256033
  },
  {
    "name": "김제서암491",
    "address": "전라북도 김제시 벽성로 329-4",
    "category": "경동택배",
    "lat": 35.8030956443083,
    "lng": 126.871830687468
  },
  {
    "name": "김제신풍13",
    "address": "전라북도 김제시 두월2길 5",
    "category": "경동택배",
    "lat": 35.7926031323285,
    "lng": 126.901355532316
  },
  {
    "name": "김천덕곡698",
    "address": "경상북도 김천시 영남대로2091",
    "category": "경동택배",
    "lat": 36.1149692823826,
    "lng": 128.156968342734
  },
  {
    "name": "김천신음37",
    "address": "경상북도 김천시 농공단지1길11",
    "category": "경동택배",
    "lat": 36.1304446239043,
    "lng": 128.134547286899
  },
  {
    "name": "김천아포국사566",
    "address": "경상북도 김천시 아포읍 아포대로 1064",
    "category": "경동택배",
    "lat": 36.1588698119626,
    "lng": 128.245394793078
  },
  {
    "name": "김천양천949",
    "address": "경북 김천시 양천동 949-2",
    "category": "경동택배",
    "lat": 36.0876993463736,
    "lng": 128.107924276951
  },
  {
    "name": "김천어모남산2008",
    "address": "경상북도 김천시 어모면 산업단지4로 111-1",
    "category": "경동택배",
    "lat": 36.1650578328836,
    "lng": 128.131697455397
  },
  {
    "name": "김천응명807",
    "address": "경상북도 김천시 아홉사리길 123",
    "category": "경동택배",
    "lat": 36.1493720827004,
    "lng": 128.11717282607
  },
  {
    "name": "김포감정389",
    "address": "경기도 김포시 김포대로1141번길35",
    "category": "경동택배",
    "lat": 37.633831661945,
    "lng": 126.693489877842
  },
  {
    "name": "김포고촌전호745",
    "address": "경기도 김포시 고촌읍 아라육로 57번길 70",
    "category": "경동택배",
    "lat": 37.5898614312749,
    "lng": 126.79537206351
  },
  {
    "name": "김포고촌태139",
    "address": "경기 김포시 고촌읍 태리 139",
    "category": "경동택배",
    "lat": 37.594380659015,
    "lng": 126.750565651017
  },
  {
    "name": "김포고촌풍곡465",
    "address": "경기 김포시 고촌읍 풍곡리 465-1",
    "category": "경동택배",
    "lat": 37.6089905032934,
    "lng": 126.753116277826
  },
  {
    "name": "김포대곶대능494",
    "address": "경기도 김포시 대곶면 대곶남로 390",
    "category": "경동택배",
    "lat": 37.6276293356618,
    "lng": 126.59095943957
  },
  {
    "name": "김포대곶석정1",
    "address": "경기도 김포시 대곶면 대곶북로 440",
    "category": "경동택배",
    "lat": 37.6809605382787,
    "lng": 126.568153235019
  },
  {
    "name": "김포대곶율생636",
    "address": "경기도 김포시 대곶면 대곶서로 324-1",
    "category": "경동택배",
    "lat": 37.6475,
    "lng": 126.58338
  },
  {
    "name": "김포대곶초원지347",
    "address": "경기도 김포시 대곶면 대곶북로 22-1",
    "category": "경동택배",
    "lat": 37.6564178169119,
    "lng": 126.599058469865
  },
  {
    "name": "김포양촌구래91",
    "address": "경기도 김포시 양촌읍 구래로 42번길 175",
    "category": "경동택배",
    "lat": 37.6547169994542,
    "lng": 126.619026433449
  },
  {
    "name": "김포양촌누산1108",
    "address": "경기도 김포시 양촌읍 김포대로 1759번길15",
    "category": "경동택배",
    "lat": 37.6692485607862,
    "lng": 126.643787713915
  },
  {
    "name": "김포양촌대포2",
    "address": "경기도 김포시 양촌읍 봉수대로 1754-10",
    "category": "경동택배",
    "lat": 37.6256795691975,
    "lng": 126.631268818661
  },
  {
    "name": "김포양촌석모1186",
    "address": "경기도 김포시 양촌읍 석모로 51-18",
    "category": "경동택배",
    "lat": 37.65188674706,
    "lng": 126.643822501094
  },
  {
    "name": "김포양촌학운2937",
    "address": "경기도 김포시 양촌읍 황금로 23번길 18-62",
    "category": "경동택배",
    "lat": 37.6191063411017,
    "lng": 126.630312330882
  },
  {
    "name": "김포양촌학운422",
    "address": "경기도 김포시 양촌읍 황금1로 250",
    "category": "경동택배",
    "lat": 37.6277164977216,
    "lng": 126.609941423343
  },
  {
    "name": "김포양촌황금산단67",
    "address": "경기도 김포시 양촌읍 황금산단로 67",
    "category": "경동택배",
    "lat": 37.6019062003448,
    "lng": 126.602939872451
  },
  {
    "name": "김포운양1245",
    "address": "경기도 김포시 금포로 1509",
    "category": "경동택배",
    "lat": 37.6667030996662,
    "lng": 126.67351123627
  },
  {
    "name": "김포운양40",
    "address": "경기 김포시 운양동 40-1",
    "category": "경동택배",
    "lat": 37.6487253086663,
    "lng": 126.701883856534
  },
  {
    "name": "김포월곶갈산194",
    "address": "경기 김포시 월곶면 갈산리 194-3",
    "category": "경동택배",
    "lat": 37.7129824094301,
    "lng": 126.569230068973
  },
  {
    "name": "김포통진가현810",
    "address": "경기도 김포시 통진읍 가현로 29",
    "category": "경동택배",
    "lat": 37.6678207763362,
    "lng": 126.581609406646
  },
  {
    "name": "김포통진고정553",
    "address": "경기도 김포시 통진읍 월하로 346",
    "category": "경동택배",
    "lat": 37.7111950175222,
    "lng": 126.594021651978
  },
  {
    "name": "김포통진귀전438",
    "address": "경기도 김포시 통진읍 월하로 463",
    "category": "경동택배",
    "lat": 37.7114060112185,
    "lng": 126.607507943991
  },
  {
    "name": "김포풍무371",
    "address": "경기도 김포시 유현1로 159-64",
    "category": "경동택배",
    "lat": 37.6055392091372,
    "lng": 126.733893942352
  },
  {
    "name": "김포하성양택308",
    "address": "경기도 김포시 하성면 하성로694번길 17",
    "category": "경동택배",
    "lat": 37.734668748873,
    "lng": 126.629688794059
  },
  {
    "name": "김포하성원산572",
    "address": "경기도 김포시 하성면 월하로 642",
    "category": "경동택배",
    "lat": 37.7090788582408,
    "lng": 126.625897876768
  },
  {
    "name": "김포하성전류215",
    "address": "경기도 김포시 하성면 월하로902",
    "category": "경동택배",
    "lat": 37.7057609370074,
    "lng": 126.653430275757
  },
  {
    "name": "김해부곡708",
    "address": "경상남도 김해시 장유로 149번길 16-9",
    "category": "경동택배",
    "lat": 35.2114394391093,
    "lng": 128.803369555119
  },
  {
    "name": "김해삼계1278",
    "address": "경상남도 김해시 안곡로 105",
    "category": "경동택배",
    "lat": 35.2752282763516,
    "lng": 128.852150192423
  },
  {
    "name": "김해삼정611",
    "address": "경상남도 김해시 김해대로 2471번길 7",
    "category": "경동택배",
    "lat": 35.2286424839545,
    "lng": 128.896863530526
  },
  {
    "name": "김해상동매리217",
    "address": "경상남도 김해시 상동면 동북로 473번길 14",
    "category": "경동택배",
    "lat": 35.3147313343189,
    "lng": 128.967109119274
  },
  {
    "name": "김해상동우계56",
    "address": "경상남도 김해시 상동면 상동로 389-1",
    "category": "경동택배",
    "lat": 35.3066897846438,
    "lng": 128.91341819654
  },
  {
    "name": "김해생림나전629",
    "address": "경상남도 김해시 생림면 나전로 192",
    "category": "경동택배",
    "lat": 35.3014481227834,
    "lng": 128.876680758114
  },
  {
    "name": "김해생림봉림716",
    "address": "경상남도 김해시 생림면 봉림로69",
    "category": "경동택배",
    "lat": 35.3303470234335,
    "lng": 128.847415187455
  },
  {
    "name": "김해안동659",
    "address": "경상남도 김해시 김해대로 2596번길 14",
    "category": "경동택배",
    "lat": 35.2271961638441,
    "lng": 128.910286771541
  },
  {
    "name": "김해유하562",
    "address": "경상남도 김해시 서부로 1280",
    "category": "경동택배",
    "lat": 35.2190652435381,
    "lng": 128.805193454249
  },
  {
    "name": "김해주촌내삼954",
    "address": "경상남도 김해시 주촌면 서부로 1499번안길 22",
    "category": "경동택배",
    "lat": 35.2340561604482,
    "lng": 128.815805062415
  },
  {
    "name": "김해주촌천곡11",
    "address": "경상남도 김해시 주촌면 서부로 1637번길 59",
    "category": "경동택배",
    "lat": 35.2418355717349,
    "lng": 128.830760192627
  },
  {
    "name": "김해지내312",
    "address": "경상남도 김해시 분성로 727번길 5-5",
    "category": "경동택배",
    "lat": 35.231600662522,
    "lng": 128.921625302616
  },
  {
    "name": "김해진례고모542",
    "address": "경상남도 김해시 진례면 고모로 537",
    "category": "경동택배",
    "lat": 35.2717534638177,
    "lng": 128.775424580886
  },
  {
    "name": "김해진례담안584",
    "address": "경상남도 김해시 진례면 고모로 374",
    "category": "경동택배",
    "lat": 35.2589435217321,
    "lng": 128.770649630847
  },
  {
    "name": "김해진례송현451",
    "address": "경상남도 김해시 진례면 송현로 177번길 37",
    "category": "경동택배",
    "lat": 35.2493461649321,
    "lng": 128.766656304674
  },
  {
    "name": "김해진영본산714",
    "address": "경상남도 김해시 진영읍 본산로 241번길 5",
    "category": "경동택배",
    "lat": 35.3167429479057,
    "lng": 128.752111147394
  },
  {
    "name": "김해진영설창748",
    "address": "경상남도 김해시 진영읍 김해대로 719번길 6",
    "category": "경동택배",
    "lat": 35.2969945448793,
    "lng": 128.762882747556
  },
  {
    "name": "김해진영의전62",
    "address": "경상남도 김해시 진영읍 서부로 307-3",
    "category": "경동택배",
    "lat": 35.2719658486579,
    "lng": 128.761323668047
  },
  {
    "name": "김해한림병동929",
    "address": "경상남도 김해시 한림면 김해대로 974번길 4",
    "category": "경동택배",
    "lat": 35.2914814249189,
    "lng": 128.789859745602
  },
  {
    "name": "김해한림신천348",
    "address": "경상남도 김해시 한림면 김해대로 1484-18",
    "category": "경동택배",
    "lat": 35.2762856732615,
    "lng": 128.833910297316
  },
  {
    "name": "김해한림퇴래1045",
    "address": "경상남도 김해시 한림면 김해대로 1097",
    "category": "경동택배",
    "lat": 35.2964006857206,
    "lng": 128.802489303009
  },
  {
    "name": "김해화목1055",
    "address": "경상남도 김해시 칠산로 413번길20",
    "category": "경동택배",
    "lat": 35.2092623194729,
    "lng": 128.8512209428
  },
  {
    "name": "나주남평247",
    "address": "전남 나주시 남평읍 남평리 247-6",
    "category": "경동택배",
    "lat": 35.0456297555194,
    "lng": 126.836465829118
  },
  {
    "name": "나주이창726",
    "address": "전라남도 나주시 이창택지길 25-25",
    "category": "경동택배",
    "lat": 34.9937171678975,
    "lng": 126.705793569763
  },
  {
    "name": "나주청동421",
    "address": "전라남도 나주시 청동길 70",
    "category": "경동택배",
    "lat": 35.0399880915063,
    "lng": 126.727807969571
  },
  {
    "name": "나주토계296",
    "address": "전라남도 나주시 토계길 86-43",
    "category": "경동택배",
    "lat": 35.0175466991313,
    "lng": 126.73139888049
  },
  {
    "name": "남양주수동송천335",
    "address": "경기 남양주시 수동면 송천리 335-1",
    "category": "경동택배",
    "lat": 37.695270317185,
    "lng": 127.334711156371
  },
  {
    "name": "남양주수동송천464",
    "address": "경기도 남양주시 수동면 비룡로 530번길 5",
    "category": "경동택배",
    "lat": 37.6883008373611,
    "lng": 127.322457384266
  },
  {
    "name": "남양주오남양지106",
    "address": "경기도 남양주시 오남읍 진건오남로 797번길 19",
    "category": "경동택배",
    "lat": 37.6985044801839,
    "lng": 127.200775303097
  },
  {
    "name": "남양주오남양지448",
    "address": "경기도 남양주시 오남읍 진건오남로 929번길28",
    "category": "경동택배",
    "lat": 37.7036707234438,
    "lng": 127.194176990027
  },
  {
    "name": "남양주와부월문1132",
    "address": "경기 남양주시 와부읍 월문리 1132-1",
    "category": "경동택배",
    "lat": 37.5969252910485,
    "lng": 127.230205649952
  },
  {
    "name": "남양주와부율석750",
    "address": "경기도 남양주시 와부읍 석실로488번길 4-25",
    "category": "경동택배",
    "lat": 37.6095128159003,
    "lng": 127.211529277036
  },
  {
    "name": "남양주진건사능457",
    "address": "경기도 남양주시 진건읍 진건우회로 132",
    "category": "경동택배",
    "lat": 37.65014720125,
    "lng": 127.186038406282
  },
  {
    "name": "남양주진건진관686",
    "address": "경기도 남양주시 진건읍 진관로502번길20-47",
    "category": "경동택배",
    "lat": 37.6529290533099,
    "lng": 127.158805129581
  },
  {
    "name": "남양주진접금곡501",
    "address": "경기도 남양주시 진접읍 경복대로 316",
    "category": "경동택배",
    "lat": 37.7263454916327,
    "lng": 127.204456917599
  },
  {
    "name": "남양주진접내곡384",
    "address": "경기 남양주시 진접읍 내곡리 384-2",
    "category": "경동택배",
    "lat": 37.6816124215486,
    "lng": 127.157490802944
  },
  {
    "name": "남양주진접연평418",
    "address": "경기도 남양주시 진접읍 양진로684번길69",
    "category": "경동택배",
    "lat": 37.6814678091984,
    "lng": 127.180094453674
  },
  {
    "name": "남양주화도답내504",
    "address": "경기도 남양주시 경춘로 2275번길 28",
    "category": "경동택배",
    "lat": 37.6579275691876,
    "lng": 127.342660802942
  },
  {
    "name": "남양주화도창현172",
    "address": "경기도 남양주시 화도읍 폭포로242번안길 20-16",
    "category": "경동택배",
    "lat": 37.6379611054731,
    "lng": 127.317223206782
  },
  {
    "name": "남원향교267",
    "address": "전라북도 남원시 네마실1길 7",
    "category": "경동택배",
    "lat": 35.4165260948923,
    "lng": 127.385817250988
  },
  {
    "name": "논산부창403",
    "address": "충남 논산시 부창동 403-2",
    "category": "경동택배",
    "lat": 36.1928043685648,
    "lng": 127.074809007698
  },
  {
    "name": "논산연무안심533",
    "address": "충청남도 논산시 연무읍 연무로16번길22",
    "category": "경동택배",
    "lat": 36.1361253637853,
    "lng": 127.083410020118
  },
  {
    "name": "논산취암1035",
    "address": "충청남도 논산시 계백로 1048번길7-6",
    "category": "경동택배",
    "lat": 36.2055194555432,
    "lng": 127.093396164107
  },
  {
    "name": "당진석문통정1565",
    "address": "충남 당진시 석문면 산단3로9길 18",
    "category": "경동택배",
    "lat": 37.0065342469767,
    "lng": 126.596202695467
  },
  {
    "name": "당진송산유곡236",
    "address": "충청남도 당진시 송산면 송산로798",
    "category": "경동택배",
    "lat": 36.9576510829945,
    "lng": 126.695414260728
  },
  {
    "name": "당진순성봉소782A",
    "address": "충남 당진시 순성면 순성로 342-3",
    "category": "경동택배",
    "lat": 36.840963058366,
    "lng": 126.697484764423
  },
  {
    "name": "당진신평금천818",
    "address": "충청남도 당진시 신평면 서해로 7091",
    "category": "경동택배",
    "lat": 36.8842813452283,
    "lng": 126.764379849983
  },
  {
    "name": "당진합덕소소64",
    "address": "충청남도 당진시 합덕읍 소소정착길 28-5",
    "category": "경동택배",
    "lat": 36.8139166531255,
    "lng": 126.757797614531
  },
  {
    "name": "대구군위서부166",
    "address": "대구광역시 군위군 군위읍 서부리 166-6",
    "category": "경동택배",
    "lat": 36.2316633800109,
    "lng": 128.564960735924
  },
  {
    "name": "대구남구대명",
    "address": "대구광역시 달서구 앞산순환로 217",
    "category": "경동택배",
    "lat": 35.8233492432202,
    "lng": 128.553230040477
  },
  {
    "name": "대구달서갈산262",
    "address": "대구광역시 달서구 성서서로36안길 11",
    "category": "경동택배",
    "lat": 35.8416464975181,
    "lng": 128.500930297756
  },
  {
    "name": "대구달서갈산34",
    "address": "대구광역시 달서구 성서로68길16",
    "category": "경동택배",
    "lat": 35.8472139108109,
    "lng": 128.509047867944
  },
  {
    "name": "대구달서갈산987",
    "address": "대구광역시 달서구 성서로45길 7",
    "category": "경동택배",
    "lat": 35.8375362308927,
    "lng": 128.506236543727
  },
  {
    "name": "대구달서본동870",
    "address": "대구광역시 달서구 구마로12길 29",
    "category": "경동택배",
    "lat": 35.8359549021546,
    "lng": 128.534028206437
  },
  {
    "name": "대구달서신당1737",
    "address": "대구광역시 달서구 서당로17길 24",
    "category": "경동택배",
    "lat": 35.8587480513347,
    "lng": 128.494446825133
  },
  {
    "name": "대구달서용산958",
    "address": "대구광역시 달서구 용산큰못길 47",
    "category": "경동택배",
    "lat": 35.8610931245545,
    "lng": 128.527261600065
  },
  {
    "name": "대구달서월성1082",
    "address": "대구 달서구 월성동 1802-4",
    "category": "경동택배",
    "lat": 35.8327510068547,
    "lng": 128.521975225175
  },
  {
    "name": "대구달서월암1",
    "address": "대구광역시 달서구 성서서로19길 42",
    "category": "경동택배",
    "lat": 35.8337032174489,
    "lng": 128.495358041524
  },
  {
    "name": "대구달서월암1120",
    "address": "대구광역시 달서구 성서4차첨단로 292",
    "category": "경동택배",
    "lat": 35.8245126949506,
    "lng": 128.51464385793
  },
  {
    "name": "대구달서유천175",
    "address": "대구광역시 달서구 월배로5길 28",
    "category": "경동택배",
    "lat": 35.8139295942669,
    "lng": 128.515605487908
  },
  {
    "name": "대구달서장동314",
    "address": "대구광역시 달서구 성서동로 226",
    "category": "경동택배",
    "lat": 35.8407977956285,
    "lng": 128.516052568768
  },
  {
    "name": "대구달서호산708",
    "address": "대구광역시 달서구 호산동로 84-9",
    "category": "경동택배",
    "lat": 35.8427675745544,
    "lng": 128.48696922968
  },
  {
    "name": "대구달성구지예현766",
    "address": "대구광역시 달성군 구지면 달성2차2로 86",
    "category": "경동택배",
    "lat": 35.6335622950434,
    "lng": 128.427282069462
  },
  {
    "name": "대구달성구지창리1031",
    "address": "대구광역시 달성군 구지면 창리로 41",
    "category": "경동택배",
    "lat": 35.6565194158801,
    "lng": 128.411707313856
  },
  {
    "name": "대구달성논공남리218",
    "address": "대구광역시 달성군 논공읍 논공로 833",
    "category": "경동택배",
    "lat": 35.7263042836167,
    "lng": 128.437448738769
  },
  {
    "name": "대구달성논공북리1",
    "address": "대구광역시 달성군 논공읍 논공로697-7",
    "category": "경동택배",
    "lat": 35.7309359749834,
    "lng": 128.45176302973
  },
  {
    "name": "대구달성다사세천1561",
    "address": "대구광역시 달성군 다사읍 세천북로8길 14-3",
    "category": "경동택배",
    "lat": 35.878677303584,
    "lng": 128.478890457898
  },
  {
    "name": "대구달성다사세천1606",
    "address": "대구광역시 달성군 다사읍 세천로10길 44-12",
    "category": "경동택배",
    "lat": 35.8703335711018,
    "lng": 128.473971554175
  },
  {
    "name": "대구달성옥포교항1863",
    "address": "대구광역시 달성군 옥포읍 이팝나무길 78",
    "category": "경동택배",
    "lat": 35.7897974291694,
    "lng": 128.439925685286
  },
  {
    "name": "대구달성하빈하산1115",
    "address": "대구광역시 달성군 하빈면 달구벌대로8길 40",
    "category": "경동택배",
    "lat": 35.875342393495,
    "lng": 128.399922974211
  },
  {
    "name": "대구달성현풍성하388",
    "address": "대구광역시 달성군 현풍읍 성하길 20",
    "category": "경동택배",
    "lat": 35.7009374533719,
    "lng": 128.438028313948
  },
  {
    "name": "대구달성화원설화553",
    "address": "대구광역시 달성군 화원읍 비슬로491길 8",
    "category": "경동택배",
    "lat": 35.7982830884085,
    "lng": 128.487584331599
  },
  {
    "name": "대구동구방촌78",
    "address": "대구광역시 동구 둔산로 251",
    "category": "경동택배",
    "lat": 35.896288066993,
    "lng": 128.673009678007
  },
  {
    "name": "대구동구부동671",
    "address": "대구광역시 동구 부동길 19-10",
    "category": "경동택배",
    "lat": 35.8904343315616,
    "lng": 128.680759432888
  },
  {
    "name": "대구동구불로947",
    "address": "대구광역시 동구 공항로31길 9-8",
    "category": "경동택배",
    "lat": 35.9017938917913,
    "lng": 128.629655937626
  },
  {
    "name": "대구동구용계738",
    "address": "대구광역시 동구 반야월로6길 40",
    "category": "경동택배",
    "lat": 35.8730018062508,
    "lng": 128.694668018633
  },
  {
    "name": "대구북구검단1128",
    "address": "대구광역시 북구 검단북로 189",
    "category": "경동택배",
    "lat": 35.9166828521732,
    "lng": 128.626965783181
  },
  {
    "name": "대구북구고성2가47",
    "address": "대구광역시 북구 칠성남로 55",
    "category": "경동택배",
    "lat": 35.8794578292086,
    "lng": 128.586374157408
  },
  {
    "name": "대구북구노원2가197",
    "address": "대구광역시 북구 노원로10길 89",
    "category": "경동택배",
    "lat": 35.8914032243392,
    "lng": 128.572367518309
  },
  {
    "name": "대구북구노원3가2",
    "address": "대구광역시 북구 3공단로 245",
    "category": "경동택배",
    "lat": 35.9030288461026,
    "lng": 128.577026934243
  },
  {
    "name": "대구북구노원3가655",
    "address": "대구광역시 북구 팔달북로11길 15",
    "category": "경동택배",
    "lat": 35.8915112367549,
    "lng": 128.558545927876
  },
  {
    "name": "대구북구매천144",
    "address": "대구광역시 북구 매천로37길 2",
    "category": "경동택배",
    "lat": 35.9134921361466,
    "lng": 128.542075771069
  },
  {
    "name": "대구북구산격1638",
    "address": "대구광역시 북구 유통단지로8길 31",
    "category": "경동택배",
    "lat": 35.9039254210911,
    "lng": 128.608427394468
  },
  {
    "name": "대구북구산격1723",
    "address": "대구 북구 산격동 1723",
    "category": "경동택배",
    "lat": 35.9072458089551,
    "lng": 128.616942394507
  },
  {
    "name": "대구북구산격317",
    "address": "대구광역시 북구 유통단지로3길 62",
    "category": "경동택배",
    "lat": 35.9097362648886,
    "lng": 128.604902253486
  },
  {
    "name": "대구북구침산1026",
    "address": "대구광역시 북구 노원로 196",
    "category": "경동택배",
    "lat": 35.8996541622176,
    "lng": 128.581603306785
  },
  {
    "name": "대구서구내당22",
    "address": "대구광역시 서구 서대구로10길 61",
    "category": "경동택배",
    "lat": 35.8647728095604,
    "lng": 128.562724987892
  },
  {
    "name": "대구서구비산2008",
    "address": "대구광역시 서구 염색공단로11길 7",
    "category": "경동택배",
    "lat": 35.8870037567355,
    "lng": 128.552043701093
  },
  {
    "name": "대구서구비산2053",
    "address": "대구광역시 서구 염색공단천로 104-1",
    "category": "경동택배",
    "lat": 35.8887177142418,
    "lng": 128.542499143354
  },
  {
    "name": "대구서구이현42A",
    "address": "대구광역시 서구 문화로21길 13",
    "category": "경동택배",
    "lat": 35.8755307448623,
    "lng": 128.543348982659
  },
  {
    "name": "대구서구이현42B",
    "address": "대구광역시 서구 북비산로6길 32",
    "category": "경동택배",
    "lat": 35.8757055948855,
    "lng": 128.534697247589
  },
  {
    "name": "대구서구중리1082",
    "address": "대구광역시 서구 국채보상로 120-5",
    "category": "경동택배",
    "lat": 35.8683130742765,
    "lng": 128.544414757735
  },
  {
    "name": "대구서구중리1120",
    "address": "대구광역시 서구 와룡로 336",
    "category": "경동택배",
    "lat": 35.8627069993032,
    "lng": 128.537975737463
  },
  {
    "name": "대구서구평리646",
    "address": "대구광역시 서구 북비산로 243",
    "category": "경동택배",
    "lat": 35.8795404879905,
    "lng": 128.559949340072
  },
  {
    "name": "대구수성만촌189",
    "address": "대구광역시 수성구 화랑로42길 49",
    "category": "경동택배",
    "lat": 35.8776839347172,
    "lng": 128.648938429522
  },
  {
    "name": "대구수성시지252",
    "address": "대구광역시 수성구 시지로1길 19",
    "category": "경동택배",
    "lat": 35.8422586941229,
    "lng": 128.694518651561
  },
  {
    "name": "대구수성지산",
    "address": "대구광역시 달성군 가창면 가창로 1065",
    "category": "경동택배",
    "lat": 35.799309816905,
    "lng": 128.622904731176
  },
  {
    "name": "대구중구달성116",
    "address": "대구광역시 중구 원대로 9-1",
    "category": "경동택배",
    "lat": 35.8783644329352,
    "lng": 128.580636330786
  },
  {
    "name": "대구중구태평2가24",
    "address": "대구광역시 중구 태평로28길 12",
    "category": "경동택배",
    "lat": 35.8750241115793,
    "lng": 128.591673226428
  },
  {
    "name": "대전대덕대화289",
    "address": "대전광역시 대덕구 대화로160 , 18동 124호",
    "category": "경동택배",
    "lat": 36.3652922977042,
    "lng": 127.402926868961
  },
  {
    "name": "대전대덕문평81",
    "address": "대전 대덕구 문평동 81-3",
    "category": "경동택배",
    "lat": 36.4454408097552,
    "lng": 127.404371088158
  },
  {
    "name": "대전대덕신일58",
    "address": "대전광역시 대덕구 산업단지로87번길 5",
    "category": "경동택배",
    "lat": 36.4298073260647,
    "lng": 127.412082228399
  },
  {
    "name": "대전대덕오정301",
    "address": "대전광역시 대덕구 한남로150번길194",
    "category": "경동택배",
    "lat": 36.3533601040048,
    "lng": 127.406449242062
  },
  {
    "name": "대전동구낭월473",
    "address": "대전광역시 동구 산내로 1305번길 51",
    "category": "경동택배",
    "lat": 36.2797371513154,
    "lng": 127.465234903949
  },
  {
    "name": "대전동구삼성302",
    "address": "대전광역시 동구 대전로906번길74",
    "category": "경동택배",
    "lat": 36.3416264060619,
    "lng": 127.427738448473
  },
  {
    "name": "대전동구인동25",
    "address": "대전광역시 동구 대전로 709-2",
    "category": "경동택배",
    "lat": 36.3234870411399,
    "lng": 127.436475223156
  },
  {
    "name": "대전서구가장21",
    "address": "대전광역시 서구 유등로 451",
    "category": "경동택배",
    "lat": 36.3304598903505,
    "lng": 127.39105093527
  },
  {
    "name": "대전서구변동254",
    "address": "대전광역시 서구 변동서로28번길 78-17",
    "category": "경동택배",
    "lat": 36.333914410951,
    "lng": 127.367203901234
  },
  {
    "name": "대전서구정림416",
    "address": "대전광역시 서구 정림서로199",
    "category": "경동택배",
    "lat": 36.3053820983962,
    "lng": 127.362347731765
  },
  {
    "name": "대전서구흑석912",
    "address": "대전광역시 서구 흑석동 912",
    "category": "경동택배",
    "lat": 36.2552878150816,
    "lng": 127.342073810508
  },
  {
    "name": "대전유성관평1349",
    "address": "대전 유성구 테크노1로 20 제7동1층 경동택배",
    "category": "경동택배",
    "lat": 36.4311794574487,
    "lng": 127.389388377448
  },
  {
    "name": "대전유성교촌332",
    "address": "대전광역시 유성구 한우물로 5",
    "category": "경동택배",
    "lat": 36.3098093851899,
    "lng": 127.318836295832
  },
  {
    "name": "대전유성구암624",
    "address": "대전광역시 유성구 유성대로 654번길 36",
    "category": "경동택배",
    "lat": 36.3515447526297,
    "lng": 127.330828622256
  },
  {
    "name": "대전유성외삼276",
    "address": "대전 유성구 외삼동 276",
    "category": "경동택배",
    "lat": 36.3962730634226,
    "lng": 127.31313094845
  },
  {
    "name": "대전유성탑립393",
    "address": "대전광역시 유성구 갑천로 361-32",
    "category": "경동택배",
    "lat": 36.413858069191,
    "lng": 127.416012639721
  },
  {
    "name": "대전중구안영700",
    "address": "대전광역시 중구 대둔산로184번길36",
    "category": "경동택배",
    "lat": 36.2858300123832,
    "lng": 127.379944203024
  },
  {
    "name": "대전중구오류183",
    "address": "대전광역시 중구 동서대로 1278",
    "category": "경동택배",
    "lat": 36.3272240426867,
    "lng": 127.401807189154
  },
  {
    "name": "동두천상패410",
    "address": "경기 동두천시 상패동 410",
    "category": "경동택배",
    "lat": 37.9066714170373,
    "lng": 127.030944244068
  },
  {
    "name": "동해동회378",
    "address": "강원도 동해시 효자로 593",
    "category": "경동택배",
    "lat": 37.4897376766879,
    "lng": 129.099447564201
  },
  {
    "name": "동해평릉158",
    "address": "강원도 동해시 동해대로 5462",
    "category": "경동택배",
    "lat": 37.5297347966099,
    "lng": 129.105690429802
  },
  {
    "name": "목포대양1187",
    "address": "전라남도 목포시 대양산단로 161",
    "category": "경동택배",
    "lat": 34.8358088025087,
    "lng": 126.403402997311
  },
  {
    "name": "목포옥암952",
    "address": "전라남도 목포시 녹색로134번길 45",
    "category": "경동택배",
    "lat": 34.8111186320771,
    "lng": 126.430273178458
  },
  {
    "name": "문경모전83",
    "address": "경상북도 문경시 운동장로 16-1",
    "category": "경동택배",
    "lat": 36.5907768653941,
    "lng": 128.190326349084
  },
  {
    "name": "밀양가곡457",
    "address": "경상남도 밀양시 중앙로 55",
    "category": "경동택배",
    "lat": 35.4729568483004,
    "lng": 128.771323334014
  },
  {
    "name": "밀양하남양동620",
    "address": "경상남도 밀양시 하남읍 수산로 91-3",
    "category": "경동택배",
    "lat": 35.3736810096771,
    "lng": 128.715424214242
  },
  {
    "name": "보령동대1103",
    "address": "충청남도 보령시 신설2길 77",
    "category": "경동택배",
    "lat": 36.351800062783,
    "lng": 126.606084631735
  },
  {
    "name": "보령웅천대창771",
    "address": "충청남도 보령시 웅천읍 충서로 890",
    "category": "경동택배",
    "lat": 36.2309192559714,
    "lng": 126.600800527166
  },
  {
    "name": "보령주교80",
    "address": "충청남도 보령시 울계큰길 440",
    "category": "경동택배",
    "lat": 36.3919732047188,
    "lng": 126.567681424142
  },
  {
    "name": "부산강서구랑1171",
    "address": "부산광역시 강서구 미음산단로 127번길20",
    "category": "경동택배",
    "lat": 35.1370106756847,
    "lng": 128.858024514285
  },
  {
    "name": "부산강서대저1동1063",
    "address": "부산광역시 강서구 평강로 345번길 39",
    "category": "경동택배",
    "lat": 35.2165961422673,
    "lng": 128.947355197205
  },
  {
    "name": "부산강서대저1동4533",
    "address": "부산광역시 강서구 대저동서로 116",
    "category": "경동택배",
    "lat": 35.1980476181597,
    "lng": 128.952365899502
  },
  {
    "name": "부산강서대저1동800",
    "address": "부산광역시 강서구 대저중앙로 215번길 41",
    "category": "경동택배",
    "lat": 35.222515572753,
    "lng": 128.970427117132
  },
  {
    "name": "부산강서대저2동3153A",
    "address": "부산 강서구 대저2동 유통단지1로 41 티플렉스 107동 108호",
    "category": "경동택배",
    "lat": 35.1673384631299,
    "lng": 128.955819688911
  },
  {
    "name": "부산강서대저2동3903",
    "address": "부산광역시 강서구 금호순서길 69-2",
    "category": "경동택배",
    "lat": 35.1619304364577,
    "lng": 128.954739399486
  },
  {
    "name": "부산강서대저2동4783",
    "address": "부산 강서구 대저2동 4783-1",
    "category": "경동택배",
    "lat": 35.1478604769067,
    "lng": 128.936397464418
  },
  {
    "name": "부산강서명지3174",
    "address": "부산광역시 강서구 낙동남로991번길 39",
    "category": "경동택배",
    "lat": 35.1159037443746,
    "lng": 128.922624979489
  },
  {
    "name": "부산강서미음1524",
    "address": "부산광역시 강서구 미음산단5로 62",
    "category": "경동택배",
    "lat": 35.1597347051252,
    "lng": 128.865435194343
  },
  {
    "name": "부산강서범방1855",
    "address": "부산광역시 강서구 가락대로 900번길 38",
    "category": "경동택배",
    "lat": 35.1520763598431,
    "lng": 128.883705382149
  },
  {
    "name": "부산강서송정1190",
    "address": "부산광역시 강서구 송정길 100번길 26-1",
    "category": "경동택배",
    "lat": 35.1012726574189,
    "lng": 128.844859777934
  },
  {
    "name": "부산강서송정1631",
    "address": "부산광역시 강서구 녹산산단335로 12",
    "category": "경동택배",
    "lat": 35.09024,
    "lng": 128.85533
  },
  {
    "name": "부산강서송정1715A",
    "address": "부산광역시 강서구 녹산산단232로 38-3, 톨마트3동 119호",
    "category": "경동택배",
    "lat": 35.0853068194146,
    "lng": 128.842495700007
  },
  {
    "name": "부산강서신호326",
    "address": "부산광역시 강서구 신호동 326-11",
    "category": "경동택배",
    "lat": 35.0859296548837,
    "lng": 128.872653875862
  },
  {
    "name": "부산강서화전588",
    "address": "부산광역시 강서구 화전산단2로 135",
    "category": "경동택배",
    "lat": 35.1041678389711,
    "lng": 128.886746926406
  },
  {
    "name": "부산금정금사35",
    "address": "부산광역시 금정구 개좌로 99",
    "category": "경동택배",
    "lat": 35.2218592533991,
    "lng": 129.113682520763
  },
  {
    "name": "부산금정두구188",
    "address": "부산광역시 금정구 두구동 두구죽전 1길 16",
    "category": "경동택배",
    "lat": 35.2978702455562,
    "lng": 129.113179843755
  },
  {
    "name": "부산금정회동94",
    "address": "부산광역시 금정구 개좌로 272번길 35",
    "category": "경동택배",
    "lat": 35.230494715998,
    "lng": 129.127846994256
  },
  {
    "name": "부산기장교리335",
    "address": "부산광역시 기장군 차성로 418번길 62-5",
    "category": "경동택배",
    "lat": 35.2510753751607,
    "lng": 129.215270308387
  },
  {
    "name": "부산기장일광화전510",
    "address": "부산광역시 기장군 일광면 화용길 92",
    "category": "경동택배",
    "lat": 35.2826914744716,
    "lng": 129.2235207131
  },
  {
    "name": "부산기장장안오리1107",
    "address": "부산광역시 기장군 장안읍 오리산단로 142",
    "category": "경동택배",
    "lat": 35.3612464111448,
    "lng": 129.270317919058
  },
  {
    "name": "부산기장정관매학459",
    "address": "부산광역시 기장군 정관읍 정관상곡1길 22",
    "category": "경동택배",
    "lat": 35.3193498601123,
    "lng": 129.16904416861
  },
  {
    "name": "부산남구감만239",
    "address": "부산 남구 감만동 239-52",
    "category": "경동택배",
    "lat": 35.110771279023,
    "lng": 129.086006055214
  },
  {
    "name": "부산남구대연1동895",
    "address": "부산광역시 남구 천제등로 49-3",
    "category": "경동택배",
    "lat": 35.1318010110154,
    "lng": 129.089857227025
  },
  {
    "name": "부산동구좌천1164",
    "address": "부산광역시 동구 충장대로 289번길 69",
    "category": "경동택배",
    "lat": 35.1291261109107,
    "lng": 129.052234235177
  },
  {
    "name": "부산동구좌천68",
    "address": "부산광역시 동구 성남로 30",
    "category": "경동택배",
    "lat": 35.1294379148515,
    "lng": 129.054945536834
  },
  {
    "name": "부산동래안락167",
    "address": "부산광역시 동래구 온천천로531번길 33",
    "category": "경동택배",
    "lat": 35.1917363886528,
    "lng": 129.111602096001
  },
  {
    "name": "부산동래온천1266",
    "address": "부산광역시 동래구 아시아드대로199",
    "category": "경동택배",
    "lat": 35.2021877486776,
    "lng": 129.065369665746
  },
  {
    "name": "부산북구덕천364",
    "address": "부산광역시 북구 기찰로 129번길 36",
    "category": "경동택배",
    "lat": 35.2144780921894,
    "lng": 129.020849272694
  },
  {
    "name": "부산사상감전146",
    "address": "부산광역시 사상구 새벽시장로 12",
    "category": "경동택배",
    "lat": 35.1559739045352,
    "lng": 128.97519613223
  },
  {
    "name": "부산사상감전953",
    "address": "부산 사상구 감전동 953-33",
    "category": "경동택배",
    "lat": 35.1440007359213,
    "lng": 128.972653082578
  },
  {
    "name": "부산사상괘법562A",
    "address": "부산광역시 사상구 괘감로 55-16",
    "category": "경동택배",
    "lat": 35.1590187932314,
    "lng": 128.981083786084
  },
  {
    "name": "부산사상괘법570",
    "address": "부산광역시 사상구 새벽로223번길 112",
    "category": "경동택배",
    "lat": 35.1621123418007,
    "lng": 128.978074311631
  },
  {
    "name": "부산사상덕포247",
    "address": "부산광역시 사상구 모덕로 70",
    "category": "경동택배",
    "lat": 35.1814527209992,
    "lng": 128.983754447529
  },
  {
    "name": "부산사상모라661",
    "address": "부산광역시 사상구 사상로 469번길 36",
    "category": "경동택배",
    "lat": 35.1869922812725,
    "lng": 128.985158843165
  },
  {
    "name": "부산사상삼락119",
    "address": "부산광역시 사상구 낙동대로 1446번길 66",
    "category": "경동택배",
    "lat": 35.1875932088543,
    "lng": 128.982390960577
  },
  {
    "name": "부산사상주례688",
    "address": "부산광역시 사상구 학감대로 252번길 78",
    "category": "경동택배",
    "lat": 35.1520901989332,
    "lng": 128.994354789247
  },
  {
    "name": "부산사상학장246",
    "address": "부산광역시 사상구 가야대로 104번길 45",
    "category": "경동택배",
    "lat": 35.1481074841943,
    "lng": 128.983717655775
  },
  {
    "name": "부산사하신평370",
    "address": "부산광역시 사하구 신산로 72-2",
    "category": "경동택배",
    "lat": 35.0895185746257,
    "lng": 128.962849859245
  },
  {
    "name": "부산사하신평648",
    "address": "부산광역시 사하구 하신번영로 127번길 24",
    "category": "경동택배",
    "lat": 35.0945413861308,
    "lng": 128.957397757001
  },
  {
    "name": "부산사하장림1090",
    "address": "부산광역시 사하구 다산로 226번길 32",
    "category": "경동택배",
    "lat": 35.0749792562354,
    "lng": 128.956408186524
  },
  {
    "name": "부산사하장림440",
    "address": "부산광역시 사하구 장평로 76번길 26",
    "category": "경동택배",
    "lat": 35.0734018987717,
    "lng": 128.974032031214
  },
  {
    "name": "부산서구토성1가4A",
    "address": "부산광역시 서구 보수대로 51",
    "category": "경동택배",
    "lat": 35.1008613014012,
    "lng": 129.022682519093
  },
  {
    "name": "부산수영망미392",
    "address": "부산광역시 수영구 망미번영로96",
    "category": "경동택배",
    "lat": 35.1756342254779,
    "lng": 129.111864823252
  },
  {
    "name": "부산연제거제4동676",
    "address": "부산광역시 연제구 해맞이로 61번길 2",
    "category": "경동택배",
    "lat": 35.1800259144828,
    "lng": 129.06804361678
  },
  {
    "name": "부산연제연산374",
    "address": "부산광역시 연제구 고분로133",
    "category": "경동택배",
    "lat": 35.1858105396578,
    "lng": 129.096939954738
  },
  {
    "name": "부산영도청학330",
    "address": "부산광역시 영도구 해양로 23번길 16 가동",
    "category": "경동택배",
    "lat": 35.0992916510714,
    "lng": 129.059416114355
  },
  {
    "name": "부산진구가야444",
    "address": "부산광역시 부산진구 대학로 46번길 36",
    "category": "경동택배",
    "lat": 35.1516708272511,
    "lng": 129.033450184169
  },
  {
    "name": "부산진구개금120",
    "address": "부산광역시 부산진구 개금온정로26번길 79",
    "category": "경동택배",
    "lat": 35.157053443226,
    "lng": 129.028429170063
  },
  {
    "name": "부산진구범전251",
    "address": "부산 부산진구 범전동 251-6",
    "category": "경동택배",
    "lat": 35.165063866152,
    "lng": 129.058424077802
  },
  {
    "name": "부산진구전포883",
    "address": "부산광역시 부산진구 전포대로 171번길 42",
    "category": "경동택배",
    "lat": 35.1512635868931,
    "lng": 129.063209967784
  },
  {
    "name": "부산해운대반여292",
    "address": "부산 해운대구 반여동 292-6",
    "category": "경동택배",
    "lat": 35.2126271839867,
    "lng": 129.127246391274
  },
  {
    "name": "부산해운대우동1216",
    "address": "부산광역시 해운대구 해운대로 295번길 99",
    "category": "경동택배",
    "lat": 35.1724005899531,
    "lng": 129.135122893213
  },
  {
    "name": "부산해운대좌동1355",
    "address": "부산광역시 해운대구 좌동순환로15번길 9-30",
    "category": "경동택배",
    "lat": 35.1668559633582,
    "lng": 129.166171784695
  },
  {
    "name": "부천내동375",
    "address": "경기도 부천시 수도로 235",
    "category": "경동택배",
    "lat": 37.5216660976529,
    "lng": 126.790580400653
  },
  {
    "name": "부천내동56",
    "address": "경기도 부천시 신흥로377번가길 33",
    "category": "경동택배",
    "lat": 37.5158978799519,
    "lng": 126.774619366575
  },
  {
    "name": "부천도당163",
    "address": "경기도 부천시 원미구 도약로 297",
    "category": "경동택배",
    "lat": 37.5107470056195,
    "lng": 126.782634928377
  },
  {
    "name": "부천삼정14",
    "address": "경기 부천시 오정구 송내대로518번길 30 3동 1층일부",
    "category": "경동택배",
    "lat": 37.5294097466102,
    "lng": 126.761457576539
  },
  {
    "name": "부천삼정268",
    "address": "경기도 부천시 석천로380번길 47",
    "category": "경동택배",
    "lat": 37.5206551869858,
    "lng": 126.770372652254
  },
  {
    "name": "부천삼정349",
    "address": "경기도 부천시 수도로 55번길 6",
    "category": "경동택배",
    "lat": 37.5144316793286,
    "lng": 126.772597954898
  },
  {
    "name": "부천심곡본522",
    "address": "경기도 부천시 경인로 302",
    "category": "경동택배",
    "lat": 37.4825080721572,
    "lng": 126.789049082681
  },
  {
    "name": "부천춘의190",
    "address": "경기도 부천시 원미구 원미로 231",
    "category": "경동택배",
    "lat": 37.5030110003941,
    "lng": 126.794107216396
  },
  {
    "name": "사천벌리25",
    "address": "경상남도 사천시 중앙로 208",
    "category": "경동택배",
    "lat": 34.9438064829695,
    "lng": 128.08108122224
  },
  {
    "name": "사천사남유천54",
    "address": "경상남도 사천시 사천읍 유천길 129-35",
    "category": "경동택배",
    "lat": 35.071,
    "lng": 128.07256
  },
  {
    "name": "삼척도계늑구125",
    "address": "강원도 삼척시 도계읍 늑구1길 43-24",
    "category": "경동택배",
    "lat": 37.2546540612339,
    "lng": 129.054726547372
  },
  {
    "name": "삼척사직455",
    "address": "강원도 삼척시 중앙로 3길 23",
    "category": "경동택배",
    "lat": 37.4336185166652,
    "lng": 129.168181417666
  },
  {
    "name": "삼척원덕호산220",
    "address": "강원도 삼척시 원덕읍 삼척로 445-4",
    "category": "경동택배",
    "lat": 37.1763816763655,
    "lng": 129.334560814548
  },
  {
    "name": "상주복룡189",
    "address": "경상북도 상주시 삼백로 303",
    "category": "경동택배",
    "lat": 36.4194369682676,
    "lng": 128.17721439962
  },
  {
    "name": "상주복룡244",
    "address": "경상북도 상주시 아리랑로 37",
    "category": "경동택배",
    "lat": 36.419893926246,
    "lng": 128.172975064818
  },
  {
    "name": "서귀포동홍1592",
    "address": "제주특별자치도 서귀포시 지장샘로 28-9",
    "category": "경동택배",
    "lat": 33.2667780887964,
    "lng": 126.560469266121
  },
  {
    "name": "서귀포동홍1606",
    "address": "제주특별자치도 서귀포시 지장샘로 28-11",
    "category": "경동택배",
    "lat": 33.2668050601427,
    "lng": 126.560830076258
  },
  {
    "name": "서귀포동홍642",
    "address": "제주특별자치도 서귀포시 문부로11번길 14",
    "category": "경동택배",
    "lat": 33.2532633050443,
    "lng": 126.56925591949
  },
  {
    "name": "서산대산독곶99",
    "address": "충청남도 서산시 대산읍 평신1로 493-20",
    "category": "경동택배",
    "lat": 36.9869730312932,
    "lng": 126.371404647852
  },
  {
    "name": "서산수석660",
    "address": "충청남도 서산시 소탐1로 48",
    "category": "경동택배",
    "lat": 36.7596817879061,
    "lng": 126.490361187917
  },
  {
    "name": "서산음암신장739",
    "address": "충청남도 서산시 음암면 장나다리길 59",
    "category": "경동택배",
    "lat": 36.7493164077714,
    "lng": 126.507239519203
  },
  {
    "name": "서울강남개포1217",
    "address": "서울특별시 강남구 개포로 234",
    "category": "경동택배",
    "lat": 37.4787434131571,
    "lng": 127.048347942149
  },
  {
    "name": "서울강남논현213",
    "address": "서울 강남구 논현동 213-35",
    "category": "경동택배",
    "lat": 37.5133609758878,
    "lng": 127.032938132523
  },
  {
    "name": "서울강남대치913",
    "address": "서울특별시 강남구 삼성로 69길 11",
    "category": "경동택배",
    "lat": 37.5016037345983,
    "lng": 127.058410678989
  },
  {
    "name": "서울강남삼성",
    "address": "서울특별시 성동구 자동차시장3길 93",
    "category": "경동택배",
    "lat": 37.5587205319632,
    "lng": 127.067258356719
  },
  {
    "name": "서울강남압구정",
    "address": "경기도 성남시 수정구 등자로 13",
    "category": "경동택배",
    "lat": 37.4353340549854,
    "lng": 127.102150292309
  },
  {
    "name": "서울강남일원629",
    "address": "경기도 성남시 수정구 등자로 13",
    "category": "경동택배",
    "lat": 37.4353340549854,
    "lng": 127.102150292309
  },
  {
    "name": "서울강동길동",
    "address": "경기 하남시 풍산동 393-38",
    "category": "경동택배",
    "lat": 37.54552533185,
    "lng": 127.191949070799
  },
  {
    "name": "서울강동둔촌",
    "address": "경기 하남시 감일동 249-6",
    "category": "경동택배",
    "lat": 37.5117979262839,
    "lng": 127.145297750494
  },
  {
    "name": "서울강동상일",
    "address": "경기도 하남시 초일로 20번길 61-12",
    "category": "경동택배",
    "lat": 37.5387231656606,
    "lng": 127.179154742983
  },
  {
    "name": "서울강북미아158",
    "address": "서울특별시 강북구 도봉로 76길 49",
    "category": "경동택배",
    "lat": 37.6337261071785,
    "lng": 127.026232302158
  },
  {
    "name": "서울강북수유56",
    "address": "서울특별시 강북구 수유로 16-1",
    "category": "경동택배",
    "lat": 37.6323479340245,
    "lng": 127.018813143528
  },
  {
    "name": "서울강서개화376",
    "address": "서울특별시 강서구 개화길 2",
    "category": "경동택배",
    "lat": 37.5833073902323,
    "lng": 126.798749782535
  },
  {
    "name": "서울강서공항795",
    "address": "서울특별시 강서구 방화대로 137",
    "category": "경동택배",
    "lat": 37.5528917593294,
    "lng": 126.815950496431
  },
  {
    "name": "서울강서방화246",
    "address": "서울 강서구 방화동 246-36",
    "category": "경동택배",
    "lat": 37.5685084556119,
    "lng": 126.815149043698
  },
  {
    "name": "서울강서화곡1129",
    "address": "서울특별시 강서구 화곡로 58길 87",
    "category": "경동택배",
    "lat": 37.5520368356337,
    "lng": 126.855622198177
  },
  {
    "name": "서울강서화곡789",
    "address": "서울특별시 강서구 곰달래로54길 37",
    "category": "경동택배",
    "lat": 37.5301673255994,
    "lng": 126.860410717578
  },
  {
    "name": "서울관악봉천1667",
    "address": "서울특별시 관악구 봉천로 491",
    "category": "경동택배",
    "lat": 37.4818615032901,
    "lng": 126.954521717381
  },
  {
    "name": "서울관악신림462",
    "address": "서울특별시 관악구 관천로 93",
    "category": "경동택배",
    "lat": 37.4867916376585,
    "lng": 126.922489703847
  },
  {
    "name": "서울관악신림94",
    "address": "서울특별시 관악구 참숯1길 67",
    "category": "경동택배",
    "lat": 37.4778875951763,
    "lng": 126.939444905415
  },
  {
    "name": "서울광진구의69",
    "address": "서울특별시 광진구 자양로36길 11",
    "category": "경동택배",
    "lat": 37.5463026672719,
    "lng": 127.087528663319
  },
  {
    "name": "서울광진군자361",
    "address": "서울특별시 광진구 군자동 361-42",
    "category": "경동택배",
    "lat": 37.5487041095955,
    "lng": 127.071600591578
  },
  {
    "name": "서울광진중곡",
    "address": "경기도 구리시 코스모스길 129-26",
    "category": "경동택배",
    "lat": 37.5803872687606,
    "lng": 127.144315016217
  },
  {
    "name": "서울구로197",
    "address": "서울특별시 구로구 디지털로33길 27 삼성아이티밸리 109호",
    "category": "경동택배",
    "lat": 37.4860566025335,
    "lng": 126.894669265147
  },
  {
    "name": "서울구로604",
    "address": "서울특별시 구로구 구로중앙로198 공구상가35동 119호",
    "category": "경동택배",
    "lat": 37.5041509411059,
    "lng": 126.880792438752
  },
  {
    "name": "서울구로606A",
    "address": "서울특별시 구로구 구로중앙로 198 구로기계공구상가B블럭 15동 117호",
    "category": "경동택배",
    "lat": 37.5041509411059,
    "lng": 126.880792438752
  },
  {
    "name": "서울구로606B",
    "address": "서울특별시 구로구 구로중앙로 197, 18동124호(구로동,구로공구상가C블럭)",
    "category": "경동택배",
    "lat": 37.5039064323746,
    "lng": 126.877904822154
  },
  {
    "name": "서울구로610",
    "address": "서울특별시 구로구 경인로 55길58 영화빌딩 A동 104호",
    "category": "경동택배",
    "lat": 37.5038869598035,
    "lng": 126.876680030506
  },
  {
    "name": "서울구로614",
    "address": "서울특별시 구로구 경인로53길 73",
    "category": "경동택배",
    "lat": 37.5038988842476,
    "lng": 126.874740084939
  },
  {
    "name": "서울구로가리봉2",
    "address": "서울 구로구 가리봉동 2-176",
    "category": "경동택배",
    "lat": 37.4857970105846,
    "lng": 126.881528962015
  },
  {
    "name": "서울구로고척85",
    "address": "서울특별시 구로구 중앙로1길 48",
    "category": "경동택배",
    "lat": 37.4976805446856,
    "lng": 126.862153591422
  },
  {
    "name": "서울구로신도림643",
    "address": "서울 구로구 신도림동 신도림로 87 동아아파트 1차상가 109호",
    "category": "경동택배",
    "lat": 37.5109603819235,
    "lng": 126.882239095216
  },
  {
    "name": "서울구로오류123",
    "address": "서울특별시 구로구 경인로 110",
    "category": "경동택배",
    "lat": 37.491776917403,
    "lng": 126.836925176041
  },
  {
    "name": "서울금천가산481",
    "address": "서울특별시 금천구 가마산로96, 106호(대륭테크노타운8차)",
    "category": "경동택배",
    "lat": 37.4852607302207,
    "lng": 126.877464812011
  },
  {
    "name": "서울금천가산555",
    "address": "서울 금천구 서부샛길 400 일조기업건물 1층",
    "category": "경동택배",
    "lat": 37.4715436662391,
    "lng": 126.881784337615
  },
  {
    "name": "서울금천가산687",
    "address": "서울특별시 금천구 범안로 1126",
    "category": "경동택배",
    "lat": 37.4651809310103,
    "lng": 126.887056120267
  },
  {
    "name": "서울금천독산1031",
    "address": "서울특별시 금천구 시흥대로 360",
    "category": "경동택배",
    "lat": 37.4656733412571,
    "lng": 126.897960366379
  },
  {
    "name": "서울금천독산998",
    "address": "서울특별시 금천구 두산로 20 1층",
    "category": "경동택배",
    "lat": 37.4702763852068,
    "lng": 126.890080654095
  },
  {
    "name": "서울금천시흥984",
    "address": "서울특별시 금천구 시흥대로 97 시흥유통상가11동 114호",
    "category": "경동택배",
    "lat": 37.4446821230267,
    "lng": 126.901072369386
  },
  {
    "name": "서울노원상계",
    "address": "경기도 의정부시 장암동 120",
    "category": "경동택배",
    "lat": 37.7045807594186,
    "lng": 127.057199047615
  },
  {
    "name": "서울노원상계389",
    "address": "서울 노원구 상계동 389-321",
    "category": "경동택배",
    "lat": 37.660556803057,
    "lng": 127.06791270802
  },
  {
    "name": "서울노원하계",
    "address": "경기도 남양주시 별내면 송산로678번길 26",
    "category": "경동택배",
    "lat": 37.7002442371761,
    "lng": 127.126944368238
  },
  {
    "name": "서울도봉쌍문715",
    "address": "서울특별시 도봉구 도봉로 621",
    "category": "경동택배",
    "lat": 37.66006,
    "lng": 127.04086
  },
  {
    "name": "서울도봉창동547",
    "address": "서울특별시 도봉구 우이천로 168",
    "category": "경동택배",
    "lat": 37.635692687391,
    "lng": 127.038405403001
  },
  {
    "name": "서울동대문답십리956",
    "address": "서울 동대문구 답십리동 956-2",
    "category": "경동택배",
    "lat": 37.5651621773024,
    "lng": 127.059239908302
  },
  {
    "name": "서울동대문신설114",
    "address": "서울특별시 동대문구 하정로 11",
    "category": "경동택배",
    "lat": 37.5720504240095,
    "lng": 127.026677937861
  },
  {
    "name": "서울동대문용두103",
    "address": "서울 동대문구 천호대로 89-1",
    "category": "경동택배",
    "lat": 37.574199825495,
    "lng": 127.033447375482
  },
  {
    "name": "서울동대문장안190",
    "address": "서울 동대문구 장안동 190-76",
    "category": "경동택배",
    "lat": 37.5681420615346,
    "lng": 127.063364287955
  },
  {
    "name": "서울동대문제기892",
    "address": "서울 동대문구 제기동 892-88",
    "category": "경동택배",
    "lat": 37.584000380917,
    "lng": 127.036510418547
  },
  {
    "name": "서울동작대방",
    "address": "서울특별시 동작구 보라매로 76",
    "category": "경동택배",
    "lat": 37.496215832734,
    "lng": 126.927929590516
  },
  {
    "name": "서울동작사당202B",
    "address": "서울특별시 동작구 사당로2가길 163",
    "category": "경동택배",
    "lat": 37.4875836242109,
    "lng": 126.96510858178
  },
  {
    "name": "서울마포상암",
    "address": "경기도 고양시 덕양구 대덕로 1-12",
    "category": "경동택배",
    "lat": 37.5880548627963,
    "lng": 126.879159914596
  },
  {
    "name": "서울마포서교",
    "address": "경기 고양시 덕양구 덕은로 12",
    "category": "경동택배",
    "lat": 37.5890038861862,
    "lng": 126.876211836811
  },
  {
    "name": "서울마포용강122",
    "address": "서울 마포구 용강동 122-16",
    "category": "경동택배",
    "lat": 37.5410621042351,
    "lng": 126.941298077895
  },
  {
    "name": "서울서대문남가좌333",
    "address": "서울특별시 서대문구 가재울로 20",
    "category": "경동택배",
    "lat": 37.574129264815,
    "lng": 126.922446705136
  },
  {
    "name": "서울서대문연희724",
    "address": "서울특별시 서대문구 홍연6길 56",
    "category": "경동택배",
    "lat": 37.5769590252422,
    "lng": 126.933058633424
  },
  {
    "name": "서울서초방배871",
    "address": "서울특별시 서초구 서초대로 75 1층",
    "category": "경동택배",
    "lat": 37.4869939172352,
    "lng": 126.990599472225
  },
  {
    "name": "서울서초서초",
    "address": "경기 과천시 주암동 113",
    "category": "경동택배",
    "lat": 37.4556044544798,
    "lng": 127.030888210334
  },
  {
    "name": "서울서초신원418",
    "address": "서울특별시 서초구 탑성말길 30",
    "category": "경동택배",
    "lat": 37.4566964099367,
    "lng": 127.058117135372
  },
  {
    "name": "서울서초양재",
    "address": "경기도 과천시 상하벌1로68",
    "category": "경동택배",
    "lat": 37.4459092185248,
    "lng": 127.003101395781
  },
  {
    "name": "서울서초양재291",
    "address": "서울 서초구 동산로13길 16 1층",
    "category": "경동택배",
    "lat": 37.4725345804543,
    "lng": 127.045092901993
  },
  {
    "name": "서울성동성수284",
    "address": "서울특별시 성동구 아차산로5길 19-1",
    "category": "경동택배",
    "lat": 37.5479036914767,
    "lng": 127.052515970842
  },
  {
    "name": "서울성동성수299",
    "address": "서울특별시 성동구 광나루로 224",
    "category": "경동택배",
    "lat": 37.5498365699342,
    "lng": 127.05477179732
  },
  {
    "name": "서울성동성수759",
    "address": "서울특별시 성동구 성수이로 7",
    "category": "경동택배",
    "lat": 37.5360599826766,
    "lng": 127.053472782875
  },
  {
    "name": "서울성동하왕십리258",
    "address": "서울 성동구 청계천로 484 120동 112호",
    "category": "경동택배",
    "lat": 37.5693450977401,
    "lng": 127.030744273392
  },
  {
    "name": "서울성북보문74",
    "address": "서울 성북구 보문동6가 74",
    "category": "경동택배",
    "lat": 37.5815717286464,
    "lng": 127.019534205193
  },
  {
    "name": "서울성북정릉916",
    "address": "서울특별시 성북구 정릉로 10길 89",
    "category": "경동택배",
    "lat": 37.6056750512357,
    "lng": 126.998953575426
  },
  {
    "name": "서울성북종암3",
    "address": "서울특별시 성북구 월곡로 10길 88",
    "category": "경동택배",
    "lat": 37.5961069965945,
    "lng": 127.040171215948
  },
  {
    "name": "서울송파가락180",
    "address": "서울 송파구 가락동 180-3",
    "category": "경동택배",
    "lat": 37.4932989139462,
    "lng": 127.13648219376
  },
  {
    "name": "서울송파거여A",
    "address": "서울특별시 송파구 오금로 59길 3-22",
    "category": "경동택배",
    "lat": 37.4944928609351,
    "lng": 127.143012884995
  },
  {
    "name": "서울송파거여B",
    "address": "서울특별시 송파구 오금로 59길 3-22",
    "category": "경동택배",
    "lat": 37.4944928609351,
    "lng": 127.143012884995
  },
  {
    "name": "서울송파오금",
    "address": "경기 하남시 감일동 210",
    "category": "경동택배",
    "lat": 37.5153191163333,
    "lng": 127.145534308674
  },
  {
    "name": "서울양천목동802",
    "address": "서울 양천구 목동 802-7",
    "category": "경동택배",
    "lat": 37.5304346375256,
    "lng": 126.866794793526
  },
  {
    "name": "서울양천신월124",
    "address": "서울특별시 양천구 곰달래로 5길 12",
    "category": "경동택배",
    "lat": 37.5308878939162,
    "lng": 126.83436351298
  },
  {
    "name": "서울양천신정1315",
    "address": "서울특별시 양천구 신정로 167 서부트럭터미널",
    "category": "경동택배",
    "lat": 37.5093449690455,
    "lng": 126.841883881962
  },
  {
    "name": "서울영등포8가32",
    "address": "서울특별시 영등포구 영신로 212",
    "category": "경동택배",
    "lat": 37.526341564625,
    "lng": 126.903145429615
  },
  {
    "name": "서울영등포당산2가30",
    "address": "서울 영등포구 당산동2가 30",
    "category": "경동택배",
    "lat": 37.5224397996383,
    "lng": 126.891660413153
  },
  {
    "name": "서울영등포문래3가54",
    "address": "서울특별시 영등포구 경인로 755",
    "category": "경동택배",
    "lat": 37.5137837208392,
    "lng": 126.897143622901
  },
  {
    "name": "서울용산신계5",
    "address": "서울특별시 용산구 청파로 22길 38",
    "category": "경동택배",
    "lat": 37.5341446220618,
    "lng": 126.967214068275
  },
  {
    "name": "서울용산원효51",
    "address": "서울특별시 용산구 청파로 77, 원효전자상가 6동 1층 18호",
    "category": "경동택배",
    "lat": 37.5336635526062,
    "lng": 126.960642404006
  },
  {
    "name": "서울은평갈현",
    "address": "경기도 고양시 덕양구 봉산로 251",
    "category": "경동택배",
    "lat": 37.6144343812653,
    "lng": 126.893835153639
  },
  {
    "name": "서울은평진관",
    "address": "경기 고양시 덕양구 용두동 457",
    "category": "경동택배",
    "lat": 37.6349626698369,
    "lng": 126.882009124842
  },
  {
    "name": "서울종로숭인206",
    "address": "서울특별시 종로구 난계로25길 30",
    "category": "경동택배",
    "lat": 37.5725859644206,
    "lng": 127.021425229224
  },
  {
    "name": "서울종로장사210B",
    "address": "서울특별시 종로구 종로22길 29",
    "category": "경동택배",
    "lat": 37.5689783607003,
    "lng": 126.993839199489
  },
  {
    "name": "서울종로효제171",
    "address": "서울특별시 종로구 종로 39길 39",
    "category": "경동택배",
    "lat": 37.5723549914771,
    "lng": 127.00485963045
  },
  {
    "name": "서울중구산림",
    "address": "서울 중구 주교동 122-6",
    "category": "경동택배",
    "lat": 37.5683381710638,
    "lng": 126.998261810443
  },
  {
    "name": "서울중구신당307",
    "address": "서울특별시 중구 청구로 90 1층",
    "category": "경동택배",
    "lat": 37.5608026677963,
    "lng": 127.012527602927
  },
  {
    "name": "서울중구오장148",
    "address": "서울특별시 중구 마른내로 121",
    "category": "경동택배",
    "lat": 37.5648031176885,
    "lng": 127.001423898887
  },
  {
    "name": "서울중구주교19",
    "address": "서울 중구 동호로37길 20 A동 1층 7,8호",
    "category": "경동택배",
    "lat": 37.5687241676447,
    "lng": 127.000805597741
  },
  {
    "name": "서울중랑면목155",
    "address": "서울특별시 중랑구 겸재로 28길 52",
    "category": "경동택배",
    "lat": 37.5851076959985,
    "lng": 127.082981721682
  },
  {
    "name": "서울중랑신내821",
    "address": "서울 중랑구 신내동 821-2",
    "category": "경동택배",
    "lat": 37.6131203732131,
    "lng": 127.112304310516
  },
  {
    "name": "성남분당야탑500",
    "address": "경기도 성남시 분당구 판교로 588",
    "category": "경동택배",
    "lat": 37.4074050634904,
    "lng": 127.138579472019
  },
  {
    "name": "성남분당정자81",
    "address": "경기 성남시 분당구 정자동 81-14",
    "category": "경동택배",
    "lat": 37.3698366776029,
    "lng": 127.110882385907
  },
  {
    "name": "성남수정고등",
    "address": "경기도 성남시 수정구 등자로 13",
    "category": "경동택배",
    "lat": 37.4353340549854,
    "lng": 127.102150292309
  },
  {
    "name": "성남수정복정27",
    "address": "경기도 성남시 수정구 등자로 13",
    "category": "경동택배",
    "lat": 37.4353340549854,
    "lng": 127.102150292309
  },
  {
    "name": "성남중원상대원225",
    "address": "경기도 성남시 중원구 사기막골로 122번길 10",
    "category": "경동택배",
    "lat": 37.4393887244503,
    "lng": 127.176935112471
  },
  {
    "name": "성남중원상대원460",
    "address": "경기도 성남시 중원구 둔촌대로 536",
    "category": "경동택배",
    "lat": 37.4310637645814,
    "lng": 127.176051853594
  },
  {
    "name": "세종금남대박82",
    "address": "세종특별자치시 금남면 금남구즉로635",
    "category": "경동택배",
    "lat": 36.4782773699634,
    "lng": 127.345390815888
  },
  {
    "name": "세종부강519",
    "address": "세종특별자치시 부강면 부강외천로3",
    "category": "경동택배",
    "lat": 36.5267640087029,
    "lng": 127.368280350897
  },
  {
    "name": "세종연기수산85",
    "address": "세종특별자치시 연기면 수산리 85",
    "category": "경동택배",
    "lat": 36.5382495433238,
    "lng": 127.232810584855
  },
  {
    "name": "세종연동내판187",
    "address": "세종특별자치시 연동면 청연로 486",
    "category": "경동택배",
    "lat": 36.5488367671157,
    "lng": 127.331205513136
  },
  {
    "name": "세종전의원성21",
    "address": "세종특별자치시 전의면 의당전의로 946",
    "category": "경동택배",
    "lat": 36.6748650610561,
    "lng": 127.198530395786
  },
  {
    "name": "세종조치원남리257",
    "address": "세종특별자치시 조치원읍 산책길 127",
    "category": "경동택배",
    "lat": 36.5981538136632,
    "lng": 127.304007525829
  },
  {
    "name": "속초교동981",
    "address": "강원도 속초시 먹거리길 34",
    "category": "경동택배",
    "lat": 38.1962055056146,
    "lng": 128.576575422488
  },
  {
    "name": "속초조양1122",
    "address": "강원도 속초시 조양로 64번길 20",
    "category": "경동택배",
    "lat": 38.1884253982954,
    "lng": 128.59412525004
  },
  {
    "name": "수원권선곡반정315A",
    "address": "경기 수원시 권선구 곡반정로 72-26",
    "category": "경동택배",
    "lat": 37.2341133996116,
    "lng": 127.030194382557
  },
  {
    "name": "수원권선오목천231",
    "address": "경기도 수원시 권선구 서수원로 188",
    "category": "경동택배",
    "lat": 37.2437410291673,
    "lng": 126.969274314889
  },
  {
    "name": "수원권선입북429",
    "address": "경기도 수원시 권선구 입북로 19",
    "category": "경동택배",
    "lat": 37.2934877801746,
    "lng": 126.95961932041
  },
  {
    "name": "수원영통망포",
    "address": "경기도 화성시 반정로 138번길",
    "category": "경동택배",
    "lat": 37.2331545267217,
    "lng": 127.037950778912
  },
  {
    "name": "수원영통매탄524",
    "address": "경기도 수원시 영통구 영통로345번길 23",
    "category": "경동택배",
    "lat": 37.2567967780486,
    "lng": 127.063417299663
  },
  {
    "name": "수원장안송죽183",
    "address": "경기도 수원시 장안구 만석로 229",
    "category": "경동택배",
    "lat": 37.3065859890933,
    "lng": 127.002245721655
  },
  {
    "name": "수원팔달우만137",
    "address": "경기도 수원시 팔달구 권광로 340번길 1-3",
    "category": "경동택배",
    "lat": 37.2775241364081,
    "lng": 127.038298568971
  },
  {
    "name": "순천가곡1031",
    "address": "전남 순천시 가곡동 1031-4",
    "category": "경동택배",
    "lat": 34.985231409337,
    "lng": 127.487335467109
  },
  {
    "name": "순천남정81",
    "address": "전라남도 순천시 남산4길 3",
    "category": "경동택배",
    "lat": 34.9394871369486,
    "lng": 127.491135898179
  },
  {
    "name": "순천해룡호두1189",
    "address": "전라남도 순천시 해룡면 여순로 1371",
    "category": "경동택배",
    "lat": 34.9052902036098,
    "lng": 127.54845751335
  },
  {
    "name": "시흥과림446",
    "address": "경기도 시흥시 금오로 401",
    "category": "경동택배",
    "lat": 37.4384644733526,
    "lng": 126.833107170377
  },
  {
    "name": "시흥도창31",
    "address": "경기도 시흥시 매화산단2길 47",
    "category": "경동택배",
    "lat": 37.4128517890797,
    "lng": 126.821610181708
  },
  {
    "name": "시흥목감334",
    "address": "경기도 시흥시 목감우회로 114번길 37",
    "category": "경동택배",
    "lat": 37.3865781475417,
    "lng": 126.870819173375
  },
  {
    "name": "시흥방산718",
    "address": "경기도 시흥시 신현로 253",
    "category": "경동택배",
    "lat": 37.4054451436352,
    "lng": 126.764789119413
  },
  {
    "name": "시흥배곧294",
    "address": "경기 시흥시 배곧동 294-1",
    "category": "경동택배",
    "lat": 37.3580613618363,
    "lng": 126.709440796144
  },
  {
    "name": "시흥오이도스틸랜드A동",
    "address": "경기도 시흥시 오이도로 21 스틸랜드 A 8동 817호",
    "category": "경동택배",
    "lat": 37.3451349895581,
    "lng": 126.700735199234
  },
  {
    "name": "시흥오이도스틸랜드B동",
    "address": "경기도 시흥시 오이도로 21 B동 1226호",
    "category": "경동택배",
    "lat": 37.3451349895581,
    "lng": 126.700735199234
  },
  {
    "name": "시흥정왕1288",
    "address": "경기도 시흥시 정왕천로197 동우디지탈A-116",
    "category": "경동택배",
    "lat": 37.3296625620651,
    "lng": 126.736834341454
  },
  {
    "name": "시흥정왕1359",
    "address": "경기도 시흥시 옥구천동로 118",
    "category": "경동택배",
    "lat": 37.3360735705567,
    "lng": 126.711263069129
  },
  {
    "name": "시흥정왕1364",
    "address": "경기도 시흥시 공단21대로 204",
    "category": "경동택배",
    "lat": 37.33603,
    "lng": 126.7297
  },
  {
    "name": "시흥정왕1365",
    "address": "경기도 시흥시 공단1대로 195번길 12",
    "category": "경동택배",
    "lat": 37.3396008496463,
    "lng": 126.725002051602
  },
  {
    "name": "시흥정왕2597",
    "address": "경기도 시흥시 시화벤처로 119번길 8",
    "category": "경동택배",
    "lat": 37.3287190005164,
    "lng": 126.696110460209
  },
  {
    "name": "시흥정왕2669",
    "address": "경기도 시흥시 엠티브이24로 18-11, 102호",
    "category": "경동택배",
    "lat": 37.3139712328867,
    "lng": 126.714985408132
  },
  {
    "name": "시흥죽율30",
    "address": "경기도 시흥시 봉화로 311",
    "category": "경동택배",
    "lat": 37.3562867598217,
    "lng": 126.762645063846
  },
  {
    "name": "아산둔포관대129",
    "address": "충청남도 아산시 둔포면 관대길73",
    "category": "경동택배",
    "lat": 36.9056804408187,
    "lng": 127.033790949178
  },
  {
    "name": "아산둔포석곡101",
    "address": "충청남도 아산시 둔포면 아산밸리남로110번길 94",
    "category": "경동택배",
    "lat": 36.9117503866748,
    "lng": 127.060248596926
  },
  {
    "name": "아산방축162",
    "address": "충청남도 아산시 곡교천로 23",
    "category": "경동택배",
    "lat": 36.7878738729823,
    "lng": 126.984616897742
  },
  {
    "name": "아산배방구령1",
    "address": "충청남도 아산시 배방읍 갈산교로 72-17",
    "category": "경동택배",
    "lat": 36.781775487723,
    "lng": 127.06564905926
  },
  {
    "name": "아산선장선창232A",
    "address": "충청남도 아산시 선장면 서부남로 101",
    "category": "경동택배",
    "lat": 36.7890397022267,
    "lng": 126.872323735548
  },
  {
    "name": "아산영인창용390",
    "address": "충청남도 아산시 영인면 토정로 530",
    "category": "경동택배",
    "lat": 36.9029013802994,
    "lng": 126.972163842578
  },
  {
    "name": "아산온천1362",
    "address": "충청남도 아산시 번영로 69번길 4",
    "category": "경동택배",
    "lat": 36.7871623472237,
    "lng": 126.998532587478
  },
  {
    "name": "아산음봉산동850",
    "address": "충청남도 아산시 음봉면 월산로 201번길 22",
    "category": "경동택배",
    "lat": 36.8501850465841,
    "lng": 127.091693414844
  },
  {
    "name": "아산인주걸매1053",
    "address": "충청남도 아산시 이주면 인주산단로 23-26",
    "category": "경동택배",
    "lat": 36.88617,
    "lng": 126.88208
  },
  {
    "name": "안동송현664",
    "address": "경상북도 안동시 하이마로 36",
    "category": "경동택배",
    "lat": 36.5719269111043,
    "lng": 128.679490405952
  },
  {
    "name": "안동수상251",
    "address": "경상북도 안동시 강남로 29",
    "category": "경동택배",
    "lat": 36.5481344662092,
    "lng": 128.704765280497
  },
  {
    "name": "안동풍산상리423",
    "address": "경상북도 안동시 풍산읍 상리길5",
    "category": "경동택배",
    "lat": 36.5819982196983,
    "lng": 128.580958261612
  },
  {
    "name": "안산단원대부북1402",
    "address": "경기 안산시 단원구 대부북동 1402-1",
    "category": "경동택배",
    "lat": 37.2613325895561,
    "lng": 126.568815046226
  },
  {
    "name": "안산단원목내457A",
    "address": "경기도 안산시 단원구 별망로419,112호",
    "category": "경동택배",
    "lat": 37.3053396597147,
    "lng": 126.77228239651
  },
  {
    "name": "안산단원목내457B",
    "address": "경기도 안산시 단원구 별망로419,112호",
    "category": "경동택배",
    "lat": 37.3053396597147,
    "lng": 126.77228239651
  },
  {
    "name": "안산단원성곡645",
    "address": "경기 안산시 단원구 성곡로 176 나동 139호",
    "category": "경동택배",
    "lat": 37.3252120486709,
    "lng": 126.761279587081
  },
  {
    "name": "안산단원성곡669",
    "address": "경기도 안산시 단원구 번영1로 65",
    "category": "경동택배",
    "lat": 37.3197489624174,
    "lng": 126.737680641252
  },
  {
    "name": "안산단원성곡710",
    "address": "경기 안산시 단원구 번영로 123 시화공단 4라 606호",
    "category": "경동택배",
    "lat": 37.32084,
    "lng": 126.73689
  },
  {
    "name": "안산단원성곡851",
    "address": "경기도 안산시 단원구 성곡동 엠티브이 5로 13",
    "category": "경동택배",
    "lat": 37.2966077348566,
    "lng": 126.761710505938
  },
  {
    "name": "안산단원신길1123",
    "address": "경기 안산시 단원구 능안로 81 안산디지털파크 1054호",
    "category": "경동택배",
    "lat": 37.3232687007827,
    "lng": 126.778802676865
  },
  {
    "name": "안산단원신길1229",
    "address": "경기 안산시 단원구 신길동 1229",
    "category": "경동택배",
    "lat": 37.3233267262971,
    "lng": 126.785060296494
  },
  {
    "name": "안산단원원곡994A",
    "address": "경기 안산시 단원구 풍전로 37-24 321동 110~117호",
    "category": "경동택배",
    "lat": 37.3262376934201,
    "lng": 126.788765867437
  },
  {
    "name": "안산단원원시731",
    "address": "경기도 안산시 단원구 산단로 107 서흥테크노벨리",
    "category": "경동택배",
    "lat": 37.3054659074649,
    "lng": 126.787100551665
  },
  {
    "name": "안산단원초지645",
    "address": "경기 안산시 단원구 초지동 645",
    "category": "경동택배",
    "lat": 37.3045249390503,
    "lng": 126.796200430722
  },
  {
    "name": "안산단원초지653",
    "address": "경기 안산시 단원구 해안로 327 반월디지털지식산업센터 A동107호",
    "category": "경동택배",
    "lat": 37.2977742534169,
    "lng": 126.792084024638
  },
  {
    "name": "안산상록부곡45",
    "address": "경기도 안산시 상록구 새말1길 7",
    "category": "경동택배",
    "lat": 37.3453690093445,
    "lng": 126.86700333777
  },
  {
    "name": "안산상록팔곡이27",
    "address": "경기 안산시 상록구 팔곡이동 27-4",
    "category": "경동택배",
    "lat": 37.2904036501404,
    "lng": 126.88771453206
  },
  {
    "name": "안성공도만정626",
    "address": "경기도 안성시 공도읍 덕봉서원로229-33",
    "category": "경동택배",
    "lat": 37.0264022138913,
    "lng": 127.173170263742
  },
  {
    "name": "안성대덕건지219",
    "address": "경기도 안성시 대덕면 서동대로 4867-3",
    "category": "경동택배",
    "lat": 37.0194184865743,
    "lng": 127.239469432583
  },
  {
    "name": "안성미양계륵201",
    "address": "경기도 안성시 미양면 신두만곡로 927-14",
    "category": "경동택배",
    "lat": 36.9753136677156,
    "lng": 127.255081726456
  },
  {
    "name": "안성미양구수82",
    "address": "경기도 안성시 미양면 서운로 644",
    "category": "경동택배",
    "lat": 36.9688728402897,
    "lng": 127.262549324134
  },
  {
    "name": "안성보개적가213",
    "address": "경기도 안성시 보개면 한사울길 231-1",
    "category": "경동택배",
    "lat": 37.0524789661207,
    "lng": 127.286779070333
  },
  {
    "name": "안성양성장서227A",
    "address": "경기도 안성시 양성면 양성로 667-11",
    "category": "경동택배",
    "lat": 37.1087023936333,
    "lng": 127.217596453416
  },
  {
    "name": "안성원곡성은278",
    "address": "경기도 안성시 천덕산로 650",
    "category": "경동택배",
    "lat": 37.0771929077114,
    "lng": 127.154321379754
  },
  {
    "name": "안성일죽월정1546",
    "address": "경기도 안성시 일죽면 서동대로 7125",
    "category": "경동택배",
    "lat": 37.0819794351923,
    "lng": 127.441838073403
  },
  {
    "name": "안양동안관양855",
    "address": "경기도 안양시 동안구 벌말로 102번길 54",
    "category": "경동택배",
    "lat": 37.3977071079691,
    "lng": 126.971808980946
  },
  {
    "name": "안양동안호계555B",
    "address": "경기도 안양시 동안구 엘에스로92, 9동 119호",
    "category": "경동택배",
    "lat": 37.37161072301,
    "lng": 126.951872629481
  },
  {
    "name": "안양동안호계901",
    "address": "경기 안양시 동안구 호계동 901-42",
    "category": "경동택배",
    "lat": 37.3875835548095,
    "lng": 126.944495146583
  },
  {
    "name": "안양만안박달782",
    "address": "경기도 안양시 만안구 오리로19",
    "category": "경동택배",
    "lat": 37.4063,
    "lng": 126.88508
  },
  {
    "name": "안양만안안양190",
    "address": "경기 안양시 만안구 안양동 190",
    "category": "경동택배",
    "lat": 37.3914795732169,
    "lng": 126.939878328105
  },
  {
    "name": "양산덕계714",
    "address": "경상남도 양산시 외산길15",
    "category": "경동택배",
    "lat": 35.3734550397802,
    "lng": 129.15463658606
  },
  {
    "name": "양산물금증산848",
    "address": "경상남도 양산시 물금읍 제방로27",
    "category": "경동택배",
    "lat": 35.2925870115273,
    "lng": 129.011757244886
  },
  {
    "name": "양산북정901",
    "address": "경상남도 양산시 삼성1길 40",
    "category": "경동택배",
    "lat": 35.3570305742436,
    "lng": 129.040246513213
  },
  {
    "name": "양산산막329",
    "address": "경상남도 양산시 산막동 산막공단북3길28",
    "category": "경동택배",
    "lat": 35.3702792516747,
    "lng": 129.0560336663
  },
  {
    "name": "양산산막567",
    "address": "경상남도 양산시 산막동 산막공단북10길 70",
    "category": "경동택배",
    "lat": 35.3722317434955,
    "lng": 129.062086240722
  },
  {
    "name": "양산상북대석996",
    "address": "경상남도 양산시 상북면 상북중앙로 130",
    "category": "경동택배",
    "lat": 35.3961700686988,
    "lng": 129.056224893156
  },
  {
    "name": "양산신기649",
    "address": "경상남도 양산시 신기강변 2길 18",
    "category": "경동택배",
    "lat": 35.3535531791498,
    "lng": 129.037474250078
  },
  {
    "name": "양산어곡162",
    "address": "경상남도 양산시 새목1길 13",
    "category": "경동택배",
    "lat": 35.3718583327248,
    "lng": 129.027232060636
  },
  {
    "name": "양산용당990",
    "address": "경상남도 양산시 고연로 278-16",
    "category": "경동택배",
    "lat": 35.4325048518731,
    "lng": 129.177171263864
  },
  {
    "name": "양산유산446",
    "address": "경상남도 양산시 유산공단8길 78-34",
    "category": "경동택배",
    "lat": 35.3663267985086,
    "lng": 129.02516197975
  },
  {
    "name": "양산주남86",
    "address": "경상남도 양산시 주남로 76",
    "category": "경동택배",
    "lat": 35.4195474927835,
    "lng": 129.162106340346
  },
  {
    "name": "양주광적가납193",
    "address": "경기도 양주시 광적면 그루고개로 221번길 15-52",
    "category": "경동택배",
    "lat": 37.8325802553485,
    "lng": 126.9962274981
  },
  {
    "name": "양주광적석우417",
    "address": "경기도 양주시 광적면 광적로119",
    "category": "경동택배",
    "lat": 37.8289606776675,
    "lng": 126.979630848077
  },
  {
    "name": "양주남면경신129",
    "address": "경기도 양주시 남면 삼일로 485번길 3",
    "category": "경동택배",
    "lat": 37.8607084189201,
    "lng": 126.98860239768
  },
  {
    "name": "양주남면입암114",
    "address": "경기도 양주시 남면 삼일로 764",
    "category": "경동택배",
    "lat": 37.8828905162571,
    "lng": 126.999127221826
  },
  {
    "name": "양주백석방성8",
    "address": "경기도 양주시 백석읍 부흥로 974",
    "category": "경동택배",
    "lat": 37.8082325373234,
    "lng": 126.996760870135
  },
  {
    "name": "양주봉양632",
    "address": "경기도 양주시 칠봉산로 227번길 27",
    "category": "경동택배",
    "lat": 37.8536538100031,
    "lng": 127.075253339422
  },
  {
    "name": "양주산북74",
    "address": "경기 양주시 평화로 1224",
    "category": "경동택배",
    "lat": 37.800298981073,
    "lng": 127.046358974906
  },
  {
    "name": "양주은현선암302",
    "address": "경기도 양주시 은현면 화합로 863번길 95",
    "category": "경동택배",
    "lat": 37.8712960467694,
    "lng": 127.025172146208
  },
  {
    "name": "여수국동37",
    "address": "전라남도 여수시 봉산2로 43",
    "category": "경동택배",
    "lat": 34.7336820659534,
    "lng": 127.725944924211
  },
  {
    "name": "여수둔덕189",
    "address": "전라남도 여수시 상암로 45",
    "category": "경동택배",
    "lat": 34.7858069258488,
    "lng": 127.698607738975
  },
  {
    "name": "여수선원436",
    "address": "전라남도 여수시 반월길 19",
    "category": "경동택배",
    "lat": 34.7775498995355,
    "lng": 127.660632611334
  },
  {
    "name": "여수주삼243",
    "address": "전라남도 여수시 여수산단로 53",
    "category": "경동택배",
    "lat": 34.7889414472956,
    "lng": 127.663517239953
  },
  {
    "name": "여수해산540",
    "address": "전라남도 여수시 여수산단1로 67",
    "category": "경동택배",
    "lat": 34.8097777145082,
    "lng": 127.636594888162
  },
  {
    "name": "여주가남삼군217",
    "address": "경기도 여주시 가남읍 여주남로 952",
    "category": "경동택배",
    "lat": 37.2248672184525,
    "lng": 127.557777375651
  },
  {
    "name": "여주삼교436",
    "address": "경기 여주시 삼교동 436-7",
    "category": "경동택배",
    "lat": 37.2398478323833,
    "lng": 127.649629294911
  },
  {
    "name": "여주월송214",
    "address": "경기도 여주시 삼밭골길 26-12",
    "category": "경동택배",
    "lat": 37.2864353516229,
    "lng": 127.61331331061
  },
  {
    "name": "영주가흥444",
    "address": "경상북도 영주시 가흥로 345-45",
    "category": "경동택배",
    "lat": 36.8275535946456,
    "lng": 128.609054435108
  },
  {
    "name": "영주풍기동부195",
    "address": "경상북도 영주시 풍기읍 소백로 1909",
    "category": "경동택배",
    "lat": 36.8676898931012,
    "lng": 128.535460632378
  },
  {
    "name": "영주휴천322",
    "address": "경상북도 영주시 선비로 25",
    "category": "경동택배",
    "lat": 36.8076057271112,
    "lng": 128.625756897291
  },
  {
    "name": "영천도동264",
    "address": "경상북도 영천시 한방로17",
    "category": "경동택배",
    "lat": 35.9436426225098,
    "lng": 128.931117347838
  },
  {
    "name": "영천화룡764",
    "address": "경상북도 영천시 장수로 127",
    "category": "경동택배",
    "lat": 35.9711756028223,
    "lng": 128.914205082309
  },
  {
    "name": "오산서동202",
    "address": "경기도 오산시 서동로 61",
    "category": "경동택배",
    "lat": 37.1455419330409,
    "lng": 127.037975396653
  },
  {
    "name": "오산원동547",
    "address": "경기도 오산시 동부대로 407-21",
    "category": "경동택배",
    "lat": 37.1377565392195,
    "lng": 127.076652509098
  },
  {
    "name": "용인기흥고매755",
    "address": "경기도 용인시 기흥구 동탄기흥로 647-2",
    "category": "경동택배",
    "lat": 37.2194752405152,
    "lng": 127.093980191883
  },
  {
    "name": "용인기흥지곡278",
    "address": "경기도 용인시 기흥구 지삼로 190",
    "category": "경동택배",
    "lat": 37.2411857828637,
    "lng": 127.133562741425
  },
  {
    "name": "용인수지풍덕천",
    "address": "경기 용인시 기흥구 신갈동 402-28",
    "category": "경동택배",
    "lat": 37.2780495399593,
    "lng": 127.099456377943
  },
  {
    "name": "용인처인남사통삼641",
    "address": "경기 용인시 처인구 남사읍 서촌로 208",
    "category": "경동택배",
    "lat": 37.1476444755216,
    "lng": 127.131569486163
  },
  {
    "name": "용인처인마평313",
    "address": "경기도 용인시 처인구 신송로 68",
    "category": "경동택배",
    "lat": 37.2321577192756,
    "lng": 127.238992527113
  },
  {
    "name": "용인처인모현갈담443",
    "address": "경기도 용인시 처인구 모현읍 백옥대로 2172",
    "category": "경동택배",
    "lat": 37.3183108401379,
    "lng": 127.242809282639
  },
  {
    "name": "용인처인모현매산320",
    "address": "경기도 용인시 처인구 모현읍 곡현로 581-2",
    "category": "경동택배",
    "lat": 37.3364601796595,
    "lng": 127.222284657077
  },
  {
    "name": "용인처인백암가좌267",
    "address": "경기도 용인시 처인구 백암면 석실로 10",
    "category": "경동택배",
    "lat": 37.1745687021177,
    "lng": 127.345826270243
  },
  {
    "name": "용인처인양지주북306",
    "address": "경기도 용인시 처인구 양지면 주북로269",
    "category": "경동택배",
    "lat": 37.2476274194504,
    "lng": 127.261934122547
  },
  {
    "name": "용인처인이동덕성260",
    "address": "경기도 용인시 처인구 이동면 시미곡로21번길 3",
    "category": "경동택배",
    "lat": 37.1642834530023,
    "lng": 127.20863059668
  },
  {
    "name": "용인처인포곡삼계277",
    "address": "경기도 용인시 처인구 포곡읍 백옥대로 1837",
    "category": "경동택배",
    "lat": 37.2890797723389,
    "lng": 127.233856894552
  },
  {
    "name": "용인처인포곡영문117",
    "address": "경기도 용인시 처인구 포곡읍 석성로985번길 42",
    "category": "경동택배",
    "lat": 37.2756214950832,
    "lng": 127.209115273207
  },
  {
    "name": "울산남구삼산196",
    "address": "울산광역시 남구 돋질로436번길 12",
    "category": "경동택배",
    "lat": 35.5418816361258,
    "lng": 129.352033407781
  },
  {
    "name": "울산남구상개362",
    "address": "울산 남구 상개동 362-11",
    "category": "경동택배",
    "lat": 35.5018570591126,
    "lng": 129.318354985813
  },
  {
    "name": "울산남구야음7",
    "address": "울산광역시 남구 화합로71번길 3",
    "category": "경동택배",
    "lat": 35.5310275831146,
    "lng": 129.340721630763
  },
  {
    "name": "울산북구진장284",
    "address": "울산광역시 북구 진장유통로 42-12",
    "category": "경동택배",
    "lat": 35.5743322789549,
    "lng": 129.357816119006
  },
  {
    "name": "울산북구효문843",
    "address": "울산광역시 북구 산성로 19 (화물터미널 후문)",
    "category": "경동택배",
    "lat": 35.5692892891076,
    "lng": 129.366759274542
  },
  {
    "name": "울산울주두동봉계866",
    "address": "울산광역시 울주군 두동면 두동로 1795",
    "category": "경동택배",
    "lat": 35.7102325661183,
    "lng": 129.202052539032
  },
  {
    "name": "울산울주삼남상천926",
    "address": "울산광역시 울주군 삼남면 강당로 3",
    "category": "경동택배",
    "lat": 35.5165233855489,
    "lng": 129.096207035895
  },
  {
    "name": "울산울주상북천전288",
    "address": "울산광역시 울주군 상북면 봉화로 258-19",
    "category": "경동택배",
    "lat": 35.5740934949584,
    "lng": 129.09894274455
  },
  {
    "name": "울산울주서생신암524",
    "address": "울산 울주군 에너지산업2로 42",
    "category": "경동택배",
    "lat": 35.3543810166138,
    "lng": 129.319939262254
  },
  {
    "name": "울산울주온산덕신466",
    "address": "울산광역시 울주군 온산읍 신경3길 37-4",
    "category": "경동택배",
    "lat": 35.4309978835843,
    "lng": 129.306873741807
  },
  {
    "name": "울산울주온산삼평58",
    "address": "울산광역시 울주군 온산읍 종동길 117",
    "category": "경동택배",
    "lat": 35.4082288033444,
    "lng": 129.32817317426
  },
  {
    "name": "울산울주온양운화172",
    "address": "울산광역시 울주군 온양읍 광청로 826",
    "category": "경동택배",
    "lat": 35.4160497732957,
    "lng": 129.273768619918
  },
  {
    "name": "울산울주웅촌검단88",
    "address": "울산광역시 울주군 웅촌면 곡천검단로 179",
    "category": "경동택배",
    "lat": 35.4564673343784,
    "lng": 129.190518585129
  },
  {
    "name": "울산중구반구",
    "address": "울산 북구 진장7길 9-2",
    "category": "경동택배",
    "lat": 35.5663255207889,
    "lng": 129.359207900921
  },
  {
    "name": "원주단구117",
    "address": "강원도 원주시 치악로 1571",
    "category": "경동택배",
    "lat": 37.3230328761116,
    "lng": 127.961689233399
  },
  {
    "name": "원주문막동화716",
    "address": "강원도 원주시 문막읍 원문로 1524",
    "category": "경동택배",
    "lat": 37.3239479366193,
    "lng": 127.837611754892
  },
  {
    "name": "원주문막반계94",
    "address": "강원도 원주시 문막읍 원문로 2138",
    "category": "경동택배",
    "lat": 37.2992764197756,
    "lng": 127.796902614027
  },
  {
    "name": "원주우산692",
    "address": "강원도 원주시 우무개로 149",
    "category": "경동택배",
    "lat": 37.3651608362641,
    "lng": 127.927140310763
  },
  {
    "name": "원주지정신평983",
    "address": "강원도 원주시 지정면 신무로 134",
    "category": "경동택배",
    "lat": 37.3669936753807,
    "lng": 127.896695641427
  },
  {
    "name": "원주태장1547",
    "address": "강원도 원주시 장전길 78",
    "category": "경동택배",
    "lat": 37.3975810701289,
    "lng": 127.95550230567
  },
  {
    "name": "원주태장1547",
    "address": "강원도 원주시 장전길 78",
    "category": "경동택배",
    "lat": 37.3975810701289,
    "lng": 127.95550230567
  },
  {
    "name": "의왕고천474",
    "address": "경기도 의왕시 오전공업길 36",
    "category": "경동택배",
    "lat": 37.3549756858094,
    "lng": 126.964016054828
  },
  {
    "name": "의왕오전166",
    "address": "경기도 의왕시 맑은내길 64",
    "category": "경동택배",
    "lat": 37.3558128060976,
    "lng": 126.963639675464
  },
  {
    "name": "의정부가능227",
    "address": "경기도 의정부시 호국로 1162",
    "category": "경동택배",
    "lat": 37.7429576169047,
    "lng": 127.033048346278
  },
  {
    "name": "의정부신곡771",
    "address": "경기도 의정부시 부용로 185번길 50",
    "category": "경동택배",
    "lat": 37.751898784594,
    "lng": 127.079538691799
  },
  {
    "name": "의정부자일159",
    "address": "경기 의정부시 자일동 159-3",
    "category": "경동택배",
    "lat": 37.7702986689556,
    "lng": 127.103652058527
  },
  {
    "name": "이천부발무촌412",
    "address": "경기도 이천시 부발읍 무촌로 21-53",
    "category": "경동택배",
    "lat": 37.2840798909361,
    "lng": 127.476991763197
  },
  {
    "name": "이천신둔소정114",
    "address": "경기 이천시 신둔면 소정리 114",
    "category": "경동택배",
    "lat": 37.3090708105821,
    "lng": 127.390185216631
  },
  {
    "name": "이천장호원오남3",
    "address": "경기도 이천시 장호원읍 서동대로8965번길 33",
    "category": "경동택배",
    "lat": 37.114756271591,
    "lng": 127.630647212325
  },
  {
    "name": "이천호법유산769",
    "address": "경기 이천시 호법면 유산리 769-19",
    "category": "경동택배",
    "lat": 37.2413550935126,
    "lng": 127.430458255027
  },
  {
    "name": "익산금강343",
    "address": "전라북도 익산시 하나로 123",
    "category": "경동택배",
    "lat": 35.93300286069,
    "lng": 126.979052611833
  },
  {
    "name": "익산부송204",
    "address": "전라북도 익산시 선화로 749",
    "category": "경동택배",
    "lat": 35.9631079600998,
    "lng": 127.000174601011
  },
  {
    "name": "익산삼기서두64",
    "address": "전라북도 익산시 삼기북길 62",
    "category": "경동택배",
    "lat": 36.0304855663715,
    "lng": 126.974024779236
  },
  {
    "name": "익산석암393",
    "address": "전라북도 익산시 석암로 11길 48-59",
    "category": "경동택배",
    "lat": 35.9437054542929,
    "lng": 127.010999058252
  },
  {
    "name": "익산왕궁동용636",
    "address": "전북 익산시 왕궁면 동용리 636-4",
    "category": "경동택배",
    "lat": 35.9882605404307,
    "lng": 127.103735579139
  },
  {
    "name": "익산인화1가188",
    "address": "전라북도 익산시 목천로7길 10",
    "category": "경동택배",
    "lat": 35.9296185556225,
    "lng": 126.951487160537
  },
  {
    "name": "익산평화323",
    "address": "전라북도 익산시 익산대로4길 10",
    "category": "경동택배",
    "lat": 35.9324498044451,
    "lng": 126.944985801423
  },
  {
    "name": "익산함열남당655",
    "address": "전라북도 익산시 함열읍 함열중앙로 115",
    "category": "경동택배",
    "lat": 36.076645473127,
    "lng": 126.969907310534
  },
  {
    "name": "인천강화옥림124",
    "address": "인천광역시 강화군 강화읍 동문로 256",
    "category": "경동택배",
    "lat": 37.7610892075214,
    "lng": 126.507354975318
  },
  {
    "name": "인천계양서운149",
    "address": "인천광역시 계양구 서운산업로 47번길 8",
    "category": "경동택배",
    "lat": 37.5301237187144,
    "lng": 126.75647884124
  },
  {
    "name": "인천계양서운214",
    "address": "인천광역시 계양구 서운산단로3길 4",
    "category": "경동택배",
    "lat": 37.5336558152154,
    "lng": 126.755693478306
  },
  {
    "name": "인천계양선주지124",
    "address": "인천광역시 계양구 선주로34번길 6",
    "category": "경동택배",
    "lat": 37.5798820415108,
    "lng": 126.744597819039
  },
  {
    "name": "인천계양효성495",
    "address": "인천광역시 계양구 마장로 544번길 11",
    "category": "경동택배",
    "lat": 37.5270842769347,
    "lng": 126.706537565687
  },
  {
    "name": "인천남동간석1",
    "address": "인천광역시 남동구 만월로 104 (간석동)",
    "category": "경동택배",
    "lat": 37.4738595591431,
    "lng": 126.71750090577
  },
  {
    "name": "인천남동고잔139",
    "address": "인천광역시 남동구 청능대로484번길 36-20",
    "category": "경동택배",
    "lat": 37.3972692654478,
    "lng": 126.714037165628
  },
  {
    "name": "인천남동고잔189",
    "address": "인천 남동구 고잔동 189-6",
    "category": "경동택배",
    "lat": 37.39502,
    "lng": 126.71721
  },
  {
    "name": "인천남동고잔256",
    "address": "인천광역시 남동구 논현 고잔로 109번길 106",
    "category": "경동택배",
    "lat": 37.3950618448537,
    "lng": 126.70769338723
  },
  {
    "name": "인천남동고잔390",
    "address": "인천광역시 남동구 고잔로 41번길 50",
    "category": "경동택배",
    "lat": 37.3926274948405,
    "lng": 126.719875999356
  },
  {
    "name": "인천남동고잔462",
    "address": "인천광역시 남동구 논현고잔로54번길 63",
    "category": "경동택배",
    "lat": 37.3873960930078,
    "lng": 126.715202964189
  },
  {
    "name": "인천남동고잔634",
    "address": "인천광역시 남동구 청능대로 289번길 60",
    "category": "경동택배",
    "lat": 37.4055721863468,
    "lng": 126.694805953642
  },
  {
    "name": "인천남동고잔635",
    "address": "인천광역시 남동구 은청로28",
    "category": "경동택배",
    "lat": 37.4058659841115,
    "lng": 126.696301317156
  },
  {
    "name": "인천남동남촌625",
    "address": "인천광역시 남동구 비류대로662",
    "category": "경동택배",
    "lat": 37.4221366913745,
    "lng": 126.708681631226
  },
  {
    "name": "인천남동논현442",
    "address": "인천광역시 남동구 남동대로 262번길 30-5",
    "category": "경동택배",
    "lat": 37.4067417964972,
    "lng": 126.701618804094
  },
  {
    "name": "인천남동도림584",
    "address": "인천광역시 남동구 호구포로 420",
    "category": "경동택배",
    "lat": 37.4197703904171,
    "lng": 126.716103225193
  },
  {
    "name": "인천남동운연316",
    "address": "인천광역시 남동구 음실로 59",
    "category": "경동택배",
    "lat": 37.4381925652702,
    "lng": 126.767288972391
  },
  {
    "name": "인천동구송림11",
    "address": "인천광역시 동구 송림동 11-11",
    "category": "경동택배",
    "lat": 37.486873087331,
    "lng": 126.649108142514
  },
  {
    "name": "인천동구송림294",
    "address": "인천 동구 방축로83번길 23 10동 137호(인천산업유통센터)",
    "category": "경동택배",
    "lat": 37.4848277154699,
    "lng": 126.654796006471
  },
  {
    "name": "인천동구송현140",
    "address": "인천광역시 동구 방축로 17 쌍용자동차 인천정비사업소 내",
    "category": "경동택배",
    "lat": 37.4885055601088,
    "lng": 126.648968099701
  },
  {
    "name": "인천미추홀도화778",
    "address": "인천광역시 미추홀구 송림로 297",
    "category": "경동택배",
    "lat": 37.4762024378847,
    "lng": 126.665778897383
  },
  {
    "name": "인천미추홀주안A",
    "address": "인천 미추홀구 주안동 5-4",
    "category": "경동택배",
    "lat": 37.4704929385778,
    "lng": 126.676658077374
  },
  {
    "name": "인천미추홀학익587",
    "address": "인천광역시 미추홀구 아암대로227번길 18, 1층",
    "category": "경동택배",
    "lat": 37.4419727484911,
    "lng": 126.634073205691
  },
  {
    "name": "인천부평십정542",
    "address": "인천 부평구 십정동 542-28",
    "category": "경동택배",
    "lat": 37.4767868926824,
    "lng": 126.703044492811
  },
  {
    "name": "인천부평청천378",
    "address": "인천광역시 부평구 부평북로 40",
    "category": "경동택배",
    "lat": 37.522120226132,
    "lng": 126.697258105616
  },
  {
    "name": "인천부평청천426",
    "address": "인천광역시 부평구 부평대로337 부평제이타워3차 지식산업센터 101호",
    "category": "경동택배",
    "lat": 37.5216746925033,
    "lng": 126.721197188621
  },
  {
    "name": "인천서구가좌178",
    "address": "인천광역시 서구 봉수대로 182번길 8",
    "category": "경동택배",
    "lat": 37.4914481404971,
    "lng": 126.66213064549
  },
  {
    "name": "인천서구가좌469",
    "address": "인천광역시 서구 가좌로 83번길 13",
    "category": "경동택배",
    "lat": 37.4807899642907,
    "lng": 126.683064022581
  },
  {
    "name": "인천서구가좌602",
    "address": "인천광역시 서구 중봉대로 200",
    "category": "경동택배",
    "lat": 37.4972629520316,
    "lng": 126.64896985753
  },
  {
    "name": "인천서구경서350",
    "address": "인천광역시 서구 중봉대로 767",
    "category": "경동택배",
    "lat": 37.5484430899822,
    "lng": 126.649763835862
  },
  {
    "name": "인천서구금곡338",
    "address": "인천광역시 인천 서구 봉수대로 1589 금곡상가 101호",
    "category": "경동택배",
    "lat": 37.6134176809039,
    "lng": 126.641101380312
  },
  {
    "name": "인천서구대곡540",
    "address": "인천광역시 서구 대곡로 123번길 4",
    "category": "경동택배",
    "lat": 37.62037087595,
    "lng": 126.670454804531
  },
  {
    "name": "인천서구마전632",
    "address": "인천광역시 서구 완정로 65번안길 42-6",
    "category": "경동택배",
    "lat": 37.5948183562309,
    "lng": 126.662539453812
  },
  {
    "name": "인천서구석남223",
    "address": "인천광역시 서구 거북로 42",
    "category": "경동택배",
    "lat": 37.5031778423759,
    "lng": 126.666315310225
  },
  {
    "name": "인천서구오류1485",
    "address": "인천광역시 서구 길무로 202",
    "category": "경동택배",
    "lat": 37.5824047098166,
    "lng": 126.623875656058
  },
  {
    "name": "인천서구오류1640",
    "address": "인천광역시 서구 보듬5로13",
    "category": "경동택배",
    "lat": 37.5940095369264,
    "lng": 126.6125443085
  },
  {
    "name": "인천서구오류326",
    "address": "인천광역시 서구 반월로 17-17",
    "category": "경동택배",
    "lat": 37.59767,
    "lng": 126.62475
  },
  {
    "name": "인천서구왕길305",
    "address": "인천광역시 서구 단봉로 31",
    "category": "경동택배",
    "lat": 37.5988614760863,
    "lng": 126.647718310224
  },
  {
    "name": "인천서구원창152",
    "address": "인천광역시 서구 원창로 64번길 16-8",
    "category": "경동택배",
    "lat": 37.5177245535185,
    "lng": 126.653567206158
  },
  {
    "name": "인천서구원창424",
    "address": "인천 서구 원창동 424-44",
    "category": "경동택배",
    "lat": 37.5119544657295,
    "lng": 126.620915663234
  },
  {
    "name": "인천연수동춘913",
    "address": "인천광역시 연수구 아암대로 797",
    "category": "경동택배",
    "lat": 37.3978786380827,
    "lng": 126.660081359627
  },
  {
    "name": "인천연수송도17",
    "address": "인천 연수구 송도동 17-1",
    "category": "경동택배",
    "lat": 37.4023054265979,
    "lng": 126.640315812944
  },
  {
    "name": "인천연수송도214",
    "address": "인천광역시 연수구 송도미래로 30",
    "category": "경동택배",
    "lat": 37.3666405488818,
    "lng": 126.647280218866
  },
  {
    "name": "인천연수송도30",
    "address": "인천광역시 연수구 인천타워대로 323",
    "category": "경동택배",
    "lat": 37.3995231669444,
    "lng": 126.629572683174
  },
  {
    "name": "인천옹진백령진촌",
    "address": "인천광역시 중구 서해대로 293번길 117",
    "category": "경동택배",
    "lat": 37.4569080192347,
    "lng": 126.614617499208
  },
  {
    "name": "인천중구공항A동",
    "address": "인천광역시 중구 공항동로 193번길 90, IACT 11번",
    "category": "경동택배",
    "lat": 37.4634069909548,
    "lng": 126.469553877385
  },
  {
    "name": "인천중구공항B동",
    "address": "인천광역시 중구 공항동로 295번길 77-6, 아시아나 운송대리점 B동 106호",
    "category": "경동택배",
    "lat": 37.4685343072957,
    "lng": 126.461464275838
  },
  {
    "name": "인천중구공항C동",
    "address": "인천광역시 중구 공항동로 295번길 77-11 외항사운송대리점 C동 103B호",
    "category": "경동택배",
    "lat": 37.47123,
    "lng": 126.46623
  },
  {
    "name": "인천중구신생42",
    "address": "인천광역시 중구 서해대로 417번길 57",
    "category": "경동택배",
    "lat": 37.4660383938099,
    "lng": 126.627750391531
  },
  {
    "name": "인천중구신흥60",
    "address": "인천광역시 중구 축항대로 290번길 126",
    "category": "경동택배",
    "lat": 37.4382942808359,
    "lng": 126.619939037264
  },
  {
    "name": "인천중구항동1",
    "address": "인천광역시 중구 인중로 191-9",
    "category": "경동택배",
    "lat": 37.4681099707329,
    "lng": 126.624215390374
  },
  {
    "name": "인천중구항동27",
    "address": "인천광역시 중구 연안부두로 11번길 10-1",
    "category": "경동택배",
    "lat": 37.4559467215332,
    "lng": 126.605250374675
  },
  {
    "name": "전남강진평동121",
    "address": "전라남도 강진군 강진읍 보은로 71",
    "category": "경동택배",
    "lat": 34.6347227171501,
    "lng": 126.767044974502
  },
  {
    "name": "전남고흥등암335",
    "address": "전라남도 고흥군 고흥읍 고흥로 1582",
    "category": "경동택배",
    "lat": 34.5960544629288,
    "lng": 127.27584606196
  },
  {
    "name": "전남곡성삼기괴소302",
    "address": "전라남도 곡성군 삼기면 곡순로 1269",
    "category": "경동택배",
    "lat": 35.2285847113481,
    "lng": 127.224078230335
  },
  {
    "name": "전남구례봉동182",
    "address": "전라남도 구례군 구례읍 5일시장작은길 31",
    "category": "경동택배",
    "lat": 35.2117064977559,
    "lng": 127.471154800843
  },
  {
    "name": "전남담양삼만928",
    "address": "전라남도 담양군 담양읍 추월산로 25",
    "category": "경동택배",
    "lat": 35.3352331346495,
    "lng": 126.989507700624
  },
  {
    "name": "전남담양창평삼천50",
    "address": "전라남도 담양군 창평면 의병로 213",
    "category": "경동택배",
    "lat": 35.2418381659794,
    "lng": 127.02270905221
  },
  {
    "name": "전남무안성동273",
    "address": "전라남도 무안군 무안읍 무안로 636",
    "category": "경동택배",
    "lat": 34.9978542648488,
    "lng": 126.487007333129
  },
  {
    "name": "전남무안청계822",
    "address": "전라남도 무안군 청계면 영산로 1443",
    "category": "경동택배",
    "lat": 34.8884498251128,
    "lng": 126.429433165781
  },
  {
    "name": "전남보성벌교장좌133",
    "address": "전라남도 보성군 벌교읍 남하로 71-17",
    "category": "경동택배",
    "lat": 34.8336405591352,
    "lng": 127.353463859057
  },
  {
    "name": "전남신안읍",
    "address": "전라남도 목포시 녹색로134번길 45",
    "category": "경동택배",
    "lat": 34.8111186320771,
    "lng": 126.430273178458
  },
  {
    "name": "전남영광신하640",
    "address": "전남 영광군 영광읍 신하리 640-4",
    "category": "경동택배",
    "lat": 35.2826611404663,
    "lng": 126.488693187733
  },
  {
    "name": "전남영암삼호1316",
    "address": "전남 영암군 삼호읍 정개1길 9",
    "category": "경동택배",
    "lat": 34.7673047861048,
    "lng": 126.465807222398
  },
  {
    "name": "전남완도죽청997",
    "address": "전라남도 완도군 완도읍 농공단지 2길 14",
    "category": "경동택배",
    "lat": 34.3381600258548,
    "lng": 126.733021152026
  },
  {
    "name": "전남장성서삼용흥576",
    "address": "전라남도 장성군 서삼면 물류로 335",
    "category": "경동택배",
    "lat": 35.3201552830792,
    "lng": 126.753895775357
  },
  {
    "name": "전남장흥향양382",
    "address": "전라남도 장흥군 장흥읍 남부관광로 192-1",
    "category": "경동택배",
    "lat": 34.6776465682662,
    "lng": 126.930271935387
  },
  {
    "name": "전남진도군내월가245",
    "address": "전라남도 진도군 군내면 월강로 34-11",
    "category": "경동택배",
    "lat": 34.4907940468858,
    "lng": 126.288274927683
  },
  {
    "name": "전남함평기각1095",
    "address": "전라남도 함평군 함평읍 함장로 1202-25",
    "category": "경동택배",
    "lat": 35.0574126866853,
    "lng": 126.527450871403
  },
  {
    "name": "전남해남남외371",
    "address": "전라남도 해남군 해남읍 남부순환로 228-1",
    "category": "경동택배",
    "lat": 34.5707168524751,
    "lng": 126.590348542547
  },
  {
    "name": "전남화순교리250",
    "address": "전라남도 화순군 화순읍 쌍충로 91",
    "category": "경동택배",
    "lat": 35.0599611535831,
    "lng": 126.981311976951
  },
  {
    "name": "전북고창덕산343",
    "address": "전라북도 고창군 고창읍 고인돌대로 1643",
    "category": "경동택배",
    "lat": 35.4266261228751,
    "lng": 126.691813426231
  },
  {
    "name": "전북무주당산1579",
    "address": "전라북도 무주군 무주읍 당산강변로 106",
    "category": "경동택배",
    "lat": 36.0020877862579,
    "lng": 127.652952378886
  },
  {
    "name": "전북부안행안신기17",
    "address": "전라북도 부안군 행안면 변산로 11",
    "category": "경동택배",
    "lat": 35.7289257624081,
    "lng": 126.719924502367
  },
  {
    "name": "전북순창남계195",
    "address": "전북특별자치도 순창군 순창읍 남계리 195",
    "category": "경동택배",
    "lat": 35.3782880222771,
    "lng": 127.144111417906
  },
  {
    "name": "전북완주봉동둔산933",
    "address": "전라북도 완주군 봉동읍 둔산2로 18",
    "category": "경동택배",
    "lat": 35.9570677795045,
    "lng": 127.123390143345
  },
  {
    "name": "전북완주봉동용암319",
    "address": "전라북도 완주군 봉동읍 완주산단1로 282",
    "category": "경동택배",
    "lat": 35.9494429802237,
    "lng": 127.14216199296
  },
  {
    "name": "전북완주봉동용암97",
    "address": "전라북도 완주군 봉동읍 완주산단7로 157-50",
    "category": "경동택배",
    "lat": 35.9591360786747,
    "lng": 127.133536110075
  },
  {
    "name": "전북완주삼례1189",
    "address": "전라북도 완주군 삼례읍 녹색로 67",
    "category": "경동택배",
    "lat": 35.9171775169957,
    "lng": 127.07551939055
  },
  {
    "name": "전북임실성수월평818",
    "address": "전라북도 임실군 성수면 춘향로 2785",
    "category": "경동택배",
    "lat": 35.6276319436223,
    "lng": 127.303916126394
  },
  {
    "name": "전북장수선창373",
    "address": "전북특별자치도 장수군 장수읍 선창리 373",
    "category": "경동택배",
    "lat": 35.6573395804285,
    "lng": 127.521226769422
  },
  {
    "name": "전북진안부귀신정133",
    "address": "전라북도 진안군 진안읍 전진로 2721",
    "category": "경동택배",
    "lat": 35.77789,
    "lng": 127.36343
  },
  {
    "name": "전주덕진반월391",
    "address": "전라북도 전주시 덕진구 쪽구름로 155",
    "category": "경동택배",
    "lat": 35.8738698160024,
    "lng": 127.068239965734
  },
  {
    "name": "전주덕진반월613",
    "address": "전라북도 전주시 덕진구 반월로 93",
    "category": "경동택배",
    "lat": 35.877847407678,
    "lng": 127.07517662513
  },
  {
    "name": "전주덕진팔복1가283",
    "address": "전라북도 전주시 덕진구 신복로 88",
    "category": "경동택배",
    "lat": 35.8580185170719,
    "lng": 127.105564409635
  },
  {
    "name": "전주덕진호성2가491",
    "address": "전라북도 전주시 완주로 79-2",
    "category": "경동택배",
    "lat": 35.8733300823864,
    "lng": 127.14939802223
  },
  {
    "name": "전주완산중노송579",
    "address": "전라북도 전주시 권삼득로 27",
    "category": "경동택배",
    "lat": 35.8248490361138,
    "lng": 127.149098511455
  },
  {
    "name": "전주완산평화1가413",
    "address": "전라북도 전주시 장승배기로 287-9",
    "category": "경동택배",
    "lat": 35.7997884614734,
    "lng": 127.142576367649
  },
  {
    "name": "전주완산효자3가670",
    "address": "전라북도 전주시 천잠로 411-8",
    "category": "경동택배",
    "lat": 35.8235166319717,
    "lng": 127.096391861574
  },
  {
    "name": "정읍신태인우령184",
    "address": "전라북도 정읍시 신태인읍 호남철로 9",
    "category": "경동택배",
    "lat": 35.6921194728893,
    "lng": 126.88218271333
  },
  {
    "name": "정읍연지454",
    "address": "전라북도 정읍시 서부산업도로 249",
    "category": "경동택배",
    "lat": 35.5714977215674,
    "lng": 126.839770473337
  },
  {
    "name": "제주이호이1369",
    "address": "제주특별자치도 제주시 오광로 6길 3",
    "category": "경동택배",
    "lat": 33.4901040279313,
    "lng": 126.457691448766
  },
  {
    "name": "제주한림425",
    "address": "제주특별자치도 제주시 한림읍 일주서로 5495",
    "category": "경동택배",
    "lat": 33.417907045242,
    "lng": 126.276605037396
  },
  {
    "name": "제주화북4701",
    "address": "제주특별자치도 제주시 거로길1",
    "category": "경동택배",
    "lat": 33.5143515989078,
    "lng": 126.556655617999
  },
  {
    "name": "제천송학무도383",
    "address": "충청북도 제천시 송학면 송학로 115",
    "category": "경동택배",
    "lat": 37.1777700384566,
    "lng": 128.255211200071
  },
  {
    "name": "제천신월1138",
    "address": "충청북도 제천시 바이오밸리3로 102",
    "category": "경동택배",
    "lat": 37.1552716033486,
    "lng": 128.17445666321
  },
  {
    "name": "제천장락692",
    "address": "충청북도 제천시 내토로 751",
    "category": "경동택배",
    "lat": 37.143524873764,
    "lng": 128.223312578461
  },
  {
    "name": "제천화산845",
    "address": "충청북도 제천시 내토로40길 12-1",
    "category": "경동택배",
    "lat": 37.1272206225869,
    "lng": 128.211003423992
  },
  {
    "name": "진주사봉사곡1802",
    "address": "경상남도 진주시 사봉면 산업단지로 32",
    "category": "경동택배",
    "lat": 35.1901920897445,
    "lng": 128.274138544515
  },
  {
    "name": "진주상평265",
    "address": "경상남도 진주시 남강로1141번길 7",
    "category": "경동택배",
    "lat": 35.1686900221199,
    "lng": 128.116594719598
  },
  {
    "name": "진주상평55",
    "address": "경상남도 진주시 공단로 201",
    "category": "경동택배",
    "lat": 35.1763581731235,
    "lng": 128.121804860319
  },
  {
    "name": "진주정촌예하1399",
    "address": "경남 진주시 정촌면 예하리 1399-10",
    "category": "경동택배",
    "lat": 35.115017183906,
    "lng": 128.104287304203
  },
  {
    "name": "창원마산합포진동689",
    "address": "경상남도 창원시 마산합포구 진동면 덕곡덕기길 37",
    "category": "경동택배",
    "lat": 35.1247387597625,
    "lng": 128.485233533892
  },
  {
    "name": "창원마산회원내서중리1128",
    "address": "경상남도 창원시 마산회원구 내서읍 신평로 7",
    "category": "경동택배",
    "lat": 35.2385840980254,
    "lng": 128.509086428358
  },
  {
    "name": "창원마산회원봉암660A",
    "address": "경상남도 창원시 마산회원구 봉암공단10길 49",
    "category": "경동택배",
    "lat": 35.212757068013,
    "lng": 128.597582225435
  },
  {
    "name": "창원마산회원석전235",
    "address": "경상남도 창원시 마산회원구 봉암공단6길 27",
    "category": "경동택배",
    "lat": 35.2155053941575,
    "lng": 128.598632239052
  },
  {
    "name": "창원마산회원양덕58",
    "address": "경상남도 창원시 마산회원구 양덕로 105",
    "category": "경동택배",
    "lat": 35.2283415039044,
    "lng": 128.585998206775
  },
  {
    "name": "창원성산신촌132",
    "address": "경상남도 창원시 성산구 월림로 71-24",
    "category": "경동택배",
    "lat": 35.2068754025488,
    "lng": 128.641790526535
  },
  {
    "name": "창원성산웅남72",
    "address": "경상남도 창원시 성산구 완암로 1",
    "category": "경동택배",
    "lat": 35.2031815272648,
    "lng": 128.65911692904
  },
  {
    "name": "창원의창대산가술514",
    "address": "경상남도 창원시 의창구 대산면 주남로327번길 17",
    "category": "경동택배",
    "lat": 35.3157044273827,
    "lng": 128.692396209852
  },
  {
    "name": "창원의창명서181",
    "address": "경상남도 창원시 의창구 원이대로224번길 5-23",
    "category": "경동택배",
    "lat": 35.2442303457341,
    "lng": 128.64646790279
  },
  {
    "name": "창원의창북면월백428",
    "address": "경남 창원시 의창구 북면 월백리 428-3",
    "category": "경동택배",
    "lat": 35.3181387981889,
    "lng": 128.635637680589
  },
  {
    "name": "창원의창팔용13",
    "address": "경남 창원시 의창구 팔용동 13-5",
    "category": "경동택배",
    "lat": 35.2360155817797,
    "lng": 128.635771606377
  },
  {
    "name": "창원의창팔용40",
    "address": "경상남도 창원시 의창구 차룡로48번길 24",
    "category": "경동택배",
    "lat": 35.2424592985382,
    "lng": 128.630044420967
  },
  {
    "name": "창원의창팔용54",
    "address": "경상남도 창원시 의창구 무역로581번길 30",
    "category": "경동택배",
    "lat": 35.2315165048691,
    "lng": 128.638321892728
  },
  {
    "name": "창원진해안골832",
    "address": "경상남도 창원시 진해구 안골로 51",
    "category": "경동택배",
    "lat": 35.0900728073431,
    "lng": 128.787339793698
  },
  {
    "name": "창원진해자은254",
    "address": "경상남도 창원시 진해구 냉천로 130-13",
    "category": "경동택배",
    "lat": 35.1533643589007,
    "lng": 128.711419560574
  },
  {
    "name": "천안동남다가362",
    "address": "충청남도 천안시 동남구 다가7길 53",
    "category": "경동택배",
    "lat": 36.8020741992934,
    "lng": 127.143045281081
  },
  {
    "name": "천안동남병천가전177",
    "address": "충청남도 천안시 동남구 병천면 가전8길 118",
    "category": "경동택배",
    "lat": 36.7665503132278,
    "lng": 127.284357989893
  },
  {
    "name": "천안동남성남신사551",
    "address": "충청남도 천안시 동남구 성남면 성남로 408",
    "category": "경동택배",
    "lat": 36.7441838838442,
    "lng": 127.228673027459
  },
  {
    "name": "천안동남신부321",
    "address": "충청남도 천안시 동남구 방죽안3길 6-2",
    "category": "경동택배",
    "lat": 36.8221952927852,
    "lng": 127.153783069808
  },
  {
    "name": "천안동남용곡299",
    "address": "충청남도 천안시 동남구 용곡6길 26-3",
    "category": "경동택배",
    "lat": 36.7884972773964,
    "lng": 127.142400036395
  },
  {
    "name": "천안동남풍세보성552",
    "address": "충청남도 천안시 동남구 풍세면 용무길 20",
    "category": "경동택배",
    "lat": 36.7263102274103,
    "lng": 127.114285840692
  },
  {
    "name": "천안서북백석718",
    "address": "충청남도 천안시 서북구 백석공단2길 32",
    "category": "경동택배",
    "lat": 36.8257498255322,
    "lng": 127.112094356717
  },
  {
    "name": "천안서북성거저리102",
    "address": "충청남도 천안시 서북구 성거읍 성거길 139-13",
    "category": "경동택배",
    "lat": 36.8777027035464,
    "lng": 127.201992665317
  },
  {
    "name": "천안서북성정36",
    "address": "충청남도 천안시 서북구 세관길 108",
    "category": "경동택배",
    "lat": 36.8248017569342,
    "lng": 127.147735305757
  },
  {
    "name": "천안서북성환대홍353",
    "address": "충청남도 천안시 서북구 성환읍 천안대로 2130",
    "category": "경동택배",
    "lat": 36.9286989015401,
    "lng": 127.134371345819
  },
  {
    "name": "천안서북입장신두406",
    "address": "충청남도 천안시 서북구 입장면 성진로 603",
    "category": "경동택배",
    "lat": 36.9123678711771,
    "lng": 127.197885136396
  },
  {
    "name": "천안서북직산모시253",
    "address": "충청남도 천안시 북구 직산읍 상덕로12-5",
    "category": "경동택배",
    "lat": 36.86826,
    "lng": 127.11851
  },
  {
    "name": "천안서북차암47",
    "address": "충청남도 천안시 서북구 수레터1길 56-5",
    "category": "경동택배",
    "lat": 36.85438726275,
    "lng": 127.114913987212
  },
  {
    "name": "청주서원남이가마258",
    "address": "충청북도 청주시 서원구 남이면 가마길 49-38",
    "category": "경동택배",
    "lat": 36.598864245082,
    "lng": 127.460557430459
  },
  {
    "name": "청주서원미평222",
    "address": "충청북도 청주시 서원구 산미로 34-1",
    "category": "경동택배",
    "lat": 36.6012825475285,
    "lng": 127.468391295836
  },
  {
    "name": "청주서원현도시동440",
    "address": "충북 청주시 서원구 현도면 시동리 440-1",
    "category": "경동택배",
    "lat": 36.4920194389422,
    "lng": 127.439824403574
  },
  {
    "name": "청주청원내덕648",
    "address": "충청북도 청주시 청원구 내덕로 15",
    "category": "경동택배",
    "lat": 36.6564275191736,
    "lng": 127.482443950824
  },
  {
    "name": "청주청원내수학평175",
    "address": "충청북도 청주시 청원구 내수읍 청암로 130",
    "category": "경동택배",
    "lat": 36.7240589735544,
    "lng": 127.543844776827
  },
  {
    "name": "청주청원오창가좌119",
    "address": "충청북도 청주시 청원구 오창읍 두릉유리로 207",
    "category": "경동택배",
    "lat": 36.7363895963162,
    "lng": 127.363182163079
  },
  {
    "name": "청주청원오창성산165",
    "address": "충북 청주시 청원구 오창읍 성산리 165-2",
    "category": "경동택배",
    "lat": 36.7342945838319,
    "lng": 127.418656202292
  },
  {
    "name": "청주청원오창탑리219",
    "address": "충청북도 청주시 청원구 오창읍 농소길 33-53",
    "category": "경동택배",
    "lat": 36.7039348594547,
    "lng": 127.449015000886
  },
  {
    "name": "청주흥덕강내다락357",
    "address": "충청북도 청주시 흥덕구 강내면 태성탑연로 111",
    "category": "경동택배",
    "lat": 36.5956515129393,
    "lng": 127.356412396614
  },
  {
    "name": "청주흥덕송절434",
    "address": "충북 청주시 흥덕구 송절동 434",
    "category": "경동택배",
    "lat": 36.6574633269542,
    "lng": 127.44803208653
  },
  {
    "name": "청주흥덕신봉171",
    "address": "충청북도 청주시 흥덕구 사운로 334번길 19",
    "category": "경동택배",
    "lat": 36.6570224219879,
    "lng": 127.469779501153
  },
  {
    "name": "청주흥덕오송271",
    "address": "충청북도 청주시 흥덕구 오송읍 오송5길 20 (오송리)",
    "category": "경동택배",
    "lat": 36.610669111889,
    "lng": 127.330246217846
  },
  {
    "name": "청주흥덕옥산오산247",
    "address": "충청북도 청주시 흥덕구 옥산면 오산 5길 11-8",
    "category": "경동택배",
    "lat": 36.6650313931601,
    "lng": 127.370123587149
  },
  {
    "name": "춘천근화749",
    "address": "강원도 춘천시 중앙로194번길 19",
    "category": "경동택배",
    "lat": 37.8755583501303,
    "lng": 127.713070206662
  },
  {
    "name": "춘천동내고은543",
    "address": "강원도 춘천시 동내면 순환대로 766",
    "category": "경동택배",
    "lat": 37.8481950067981,
    "lng": 127.773011302559
  },
  {
    "name": "춘천동면장학655",
    "address": "강원도 춘천시 동면 공단로70번길 201",
    "category": "경동택배",
    "lat": 37.908914512538,
    "lng": 127.750539937851
  },
  {
    "name": "춘천퇴계856A",
    "address": "강원도 춘천시 퇴계공단1길 41, 13호",
    "category": "경동택배",
    "lat": 37.8467982863684,
    "lng": 127.738363666004
  },
  {
    "name": "춘천후평257",
    "address": "강원도 춘천시 후석로462번길 28",
    "category": "경동택배",
    "lat": 37.8898872567912,
    "lng": 127.744306865419
  },
  {
    "name": "충남금산복수466",
    "address": "충남 금산군 복수면 다복로 120",
    "category": "경동택배",
    "lat": 36.1626190644336,
    "lng": 127.410386821782
  },
  {
    "name": "충남금산중도1",
    "address": "충청남도 금산군 금산읍 금산천길 190",
    "category": "경동택배",
    "lat": 36.1011795558255,
    "lng": 127.500400189218
  },
  {
    "name": "충남금산추부마전563",
    "address": "충청남도 금산군 추부면 대학로 80",
    "category": "경동택배",
    "lat": 36.1917908408091,
    "lng": 127.465089802425
  },
  {
    "name": "충남부여쌍북172",
    "address": "충청남도 부여군 부여읍 성왕로363-1",
    "category": "경동택배",
    "lat": 36.2841658874134,
    "lng": 126.927382857264
  },
  {
    "name": "충남서천장항성주503",
    "address": "충청남도 서천군 장항읍 장서로 212",
    "category": "경동택배",
    "lat": 36.0256035175736,
    "lng": 126.702911066026
  },
  {
    "name": "충남예산관작433",
    "address": "충청남도 예산군 예산읍 관작 중앙길 8",
    "category": "경동택배",
    "lat": 36.7101469529114,
    "lng": 126.832378938477
  },
  {
    "name": "충남예산응봉송석242",
    "address": "충청남도 예산군 응봉면 송석월곡길 3",
    "category": "경동택배",
    "lat": 36.6655343893639,
    "lng": 126.767228215336
  },
  {
    "name": "충남청양송방358",
    "address": "충청남도 청양군 청양읍 칠갑산로 147",
    "category": "경동택배",
    "lat": 36.4504058807351,
    "lng": 126.79288365152
  },
  {
    "name": "충남청양정산서정254",
    "address": "충청남도 청양군 정산면 충의로 1345",
    "category": "경동택배",
    "lat": 36.40756,
    "lng": 126.94721
  },
  {
    "name": "충남태안삭선381A",
    "address": "충남 태안군 태안읍 삭선리 381-1",
    "category": "경동택배",
    "lat": 36.7771064884557,
    "lng": 126.285291432633
  },
  {
    "name": "충남홍성광천신진200",
    "address": "충청남도 홍성군 광천읍 충서로 383",
    "category": "경동택배",
    "lat": 36.5170558120446,
    "lng": 126.621492471041
  },
  {
    "name": "충남홍성옥암118",
    "address": "충청남도 홍성군 홍성읍 충서로1345",
    "category": "경동택배",
    "lat": 36.5957231156713,
    "lng": 126.652361743645
  },
  {
    "name": "충북괴산동부65",
    "address": "충청북도 괴산군 괴산읍 괴강로 156",
    "category": "경동택배",
    "lat": 36.8086983401453,
    "lng": 127.80935405355
  },
  {
    "name": "충북괴산사리방축365",
    "address": "충청북도 괴산군 사리면 방축길 8",
    "category": "경동택배",
    "lat": 36.8111792793113,
    "lng": 127.648224844693
  },
  {
    "name": "충북단양도전628",
    "address": "충청북도 단양군 단양읍 도전6길 31",
    "category": "경동택배",
    "lat": 36.9822693083795,
    "lng": 128.370349265402
  },
  {
    "name": "충북단양매포평동337",
    "address": "충청북도 단양군 매포읍 평동2로8",
    "category": "경동택배",
    "lat": 37.0324853956842,
    "lng": 128.301468210192
  },
  {
    "name": "충북보은죽전227",
    "address": "충청북도 보은군 보은읍 죽전제방길23",
    "category": "경동택배",
    "lat": 36.4787500015639,
    "lng": 127.725315843053
  },
  {
    "name": "충북영동부용828",
    "address": "충청북도 영동군 영동읍 상부용로1-16",
    "category": "경동택배",
    "lat": 36.1789956597414,
    "lng": 127.769591390506
  },
  {
    "name": "충북영동황간소계190",
    "address": "충청북도 영동군 황간면 구교리길15",
    "category": "경동택배",
    "lat": 36.2271668439021,
    "lng": 127.920094619044
  },
  {
    "name": "충북옥천금구193",
    "address": "충청북도 옥천군 옥천읍 삼금로1길 19",
    "category": "경동택배",
    "lat": 36.300943702818,
    "lng": 127.565166345564
  },
  {
    "name": "충북옥천동이세산905",
    "address": "충북 옥천군 동이면 평산길 181",
    "category": "경동택배",
    "lat": 36.2755768772699,
    "lng": 127.61210088195
  },
  {
    "name": "충북옥천청산지전37",
    "address": "충청북도 옥천군 청산면 지전1길24",
    "category": "경동택배",
    "lat": 36.3458764494155,
    "lng": 127.792512442467
  },
  {
    "name": "충북음성감곡오향842",
    "address": "충청북도 음성군 감곡면 장감로218번길 41-18",
    "category": "경동택배",
    "lat": 37.1141018539318,
    "lng": 127.63822178163
  },
  {
    "name": "충북음성금왕오선528",
    "address": "충청북도 음성군 금왕읍 대금로 1344",
    "category": "경동택배",
    "lat": 36.9848362225331,
    "lng": 127.582455831466
  },
  {
    "name": "충북음성금왕오선550",
    "address": "충청북도 음성군 금왕읍 오선산단로61",
    "category": "경동택배",
    "lat": 36.9763768642572,
    "lng": 127.571142422109
  },
  {
    "name": "충북음성대소대풍445",
    "address": "충청북도 음성군 대소면 대금로 90",
    "category": "경동택배",
    "lat": 36.9852382156127,
    "lng": 127.45583256098
  },
  {
    "name": "충북음성맹동신돈21",
    "address": "충청북도 음성군 맹동면 덕금로 15",
    "category": "경동택배",
    "lat": 36.9175768765234,
    "lng": 127.523799620595
  },
  {
    "name": "충북음성삼성덕정570",
    "address": "충청북도 음성군 삼성면 금일로 820-2",
    "category": "경동택배",
    "lat": 37.0174855147082,
    "lng": 127.503896750273
  },
  {
    "name": "충북음성삼성덕정658",
    "address": "충청북도 음성군 삼성면 덕정로 148",
    "category": "경동택배",
    "lat": 37.0199102762665,
    "lng": 127.507748387046
  },
  {
    "name": "충북음성생극신양464",
    "address": "충청북도 음성군 생극면 음성로 1663-19",
    "category": "경동택배",
    "lat": 37.0344719014217,
    "lng": 127.602967714059
  },
  {
    "name": "충북음성소이대장272",
    "address": "충청북도 음성군 소이면 소이로 249-2",
    "category": "경동택배",
    "lat": 36.9328421683971,
    "lng": 127.74774709137
  },
  {
    "name": "충북음성신천220",
    "address": "충청북도 음성군 음성읍 음성로 16",
    "category": "경동택배",
    "lat": 36.9253920364295,
    "lng": 127.687971088453
  },
  {
    "name": "충북증평송산393",
    "address": "충청북도 증평군 증평읍 송티로 49",
    "category": "경동택배",
    "lat": 36.7981548823466,
    "lng": 127.578500181194
  },
  {
    "name": "충북진천송두1A",
    "address": "충청북도 진천군 진천읍 덕금로 183-13",
    "category": "경동택배",
    "lat": 36.8714827510541,
    "lng": 127.466544012517
  },
  {
    "name": "충북진천송두1B",
    "address": "충청북도 진천군 진천읍 덕금로 183-13",
    "category": "경동택배",
    "lat": 36.8714827510541,
    "lng": 127.466544012517
  },
  {
    "name": "충주대소원대소53",
    "address": "충청북도 충주시 대소원면 중원대로 4377",
    "category": "경동택배",
    "lat": 36.9735037642818,
    "lng": 127.823146770865
  },
  {
    "name": "충주문화2985",
    "address": "충청북도 충주시 사직로 87",
    "category": "경동택배",
    "lat": 36.9673857016502,
    "lng": 127.922320703886
  },
  {
    "name": "충주봉방18",
    "address": "충청북도 충주시 삼원로 100",
    "category": "경동택배",
    "lat": 36.9747491544963,
    "lng": 127.923046210488
  },
  {
    "name": "충주봉방894",
    "address": "충청북도 충주시 삼원로 26",
    "category": "경동택배",
    "lat": 36.9709011380665,
    "lng": 127.916156411393
  },
  {
    "name": "충주엄정율능557",
    "address": "충청북도 충주시 엄정면 구룡로214",
    "category": "경동택배",
    "lat": 37.0773663319857,
    "lng": 127.91050100726
  },
  {
    "name": "충주주덕삼청298",
    "address": "충청북도 충주시 주덕읍 충청대로2386",
    "category": "경동택배",
    "lat": 36.9641804598352,
    "lng": 127.785384963745
  },
  {
    "name": "태백황지122",
    "address": "강원도 태백시 연무정길 7",
    "category": "경동택배",
    "lat": 37.1511976801808,
    "lng": 128.991691099361
  },
  {
    "name": "통영무전480",
    "address": "경상남도 통영시 안개4길 83",
    "category": "경동택배",
    "lat": 34.8585486503463,
    "lng": 128.431902373231
  },
  {
    "name": "통영북신625",
    "address": "경상남도 통영시 평인일주로 1106-14",
    "category": "경동택배",
    "lat": 34.8582850063488,
    "lng": 128.41670718969
  },
  {
    "name": "파주광탄분수178",
    "address": "경기도 파주시 광탄면 장지산로 300",
    "category": "경동택배",
    "lat": 37.7577246105438,
    "lng": 126.873713710102
  },
  {
    "name": "파주광탄신산346",
    "address": "경기도 파주시 광탄면 혜음로 1198",
    "category": "경동택배",
    "lat": 37.7876972356997,
    "lng": 126.84515927358
  },
  {
    "name": "파주광탄창만492",
    "address": "경기 파주시 광탄면 창만리 492-22",
    "category": "경동택배",
    "lat": 37.796333229659,
    "lng": 126.859098463366
  },
  {
    "name": "파주교하상지석546",
    "address": "경기도 파주시 운정로 150",
    "category": "경동택배",
    "lat": 37.7207692330725,
    "lng": 126.78193298664
  },
  {
    "name": "파주교하연다산45",
    "address": "경기도 파주시 교하로 1007-8",
    "category": "경동택배",
    "lat": 37.7346806692669,
    "lng": 126.712121606663
  },
  {
    "name": "파주문산사목265",
    "address": "경기도 파주시 문산읍 반구정로 17",
    "category": "경동택배",
    "lat": 37.8657638784536,
    "lng": 126.760277893288
  },
  {
    "name": "파주법원대능125",
    "address": "경기도 파주시 법원읍 화합로 43",
    "category": "경동택배",
    "lat": 37.8463101993472,
    "lng": 126.871487246486
  },
  {
    "name": "파주부곡44",
    "address": "경기도 파주시 파주읍 여울길 326",
    "category": "경동택배",
    "lat": 37.8162849072364,
    "lng": 126.831232424264
  },
  {
    "name": "파주아동353",
    "address": "경기도 파주시 새꽃로 237",
    "category": "경동택배",
    "lat": 37.7671968739401,
    "lng": 126.778212441437
  },
  {
    "name": "파주월롱덕은1062",
    "address": "경기도 파주시 월롱면 휴암로 215",
    "category": "경동택배",
    "lat": 37.810759972515,
    "lng": 126.781761826739
  },
  {
    "name": "파주적성마지193",
    "address": "경기도 파주시 적성면 솥뒤로 95",
    "category": "경동택배",
    "lat": 37.9599926039678,
    "lng": 126.910782370317
  },
  {
    "name": "파주조리뇌조416",
    "address": "경기도 파주시 조리읍 등원로 119",
    "category": "경동택배",
    "lat": 37.7635207801325,
    "lng": 126.811504093425
  },
  {
    "name": "파주조리봉일천20",
    "address": "경기도 파주시 조리읍 통일로 137",
    "category": "경동택배",
    "lat": 37.7354192694578,
    "lng": 126.827140916159
  },
  {
    "name": "파주탄현금산120",
    "address": "경기 파주시 탄현면 금산리 120-6",
    "category": "경동택배",
    "lat": 37.8047332134517,
    "lng": 126.707822992705
  },
  {
    "name": "파주탄현낙하223",
    "address": "경기도 파주시 탄현면 엘지로 716",
    "category": "경동택배",
    "lat": 37.8367869442158,
    "lng": 126.736521054242
  },
  {
    "name": "파주탄현법흥71",
    "address": "경기도 파주시 탄현면 방촌로 430",
    "category": "경동택배",
    "lat": 37.7836645119772,
    "lng": 126.722020928558
  },
  {
    "name": "평택도일1168",
    "address": "경기 평택시 도일동 1168-6",
    "category": "경동택배",
    "lat": 37.0390120980357,
    "lng": 127.101725836855
  },
  {
    "name": "평택서탄수월암639",
    "address": "경기도 평택시 서탄면 수월암길 7",
    "category": "경동택배",
    "lat": 37.120719957549,
    "lng": 127.032403347896
  },
  {
    "name": "평택서탄수월암984",
    "address": "경기도 평택시 서탄면 서탄로 437",
    "category": "경동택배",
    "lat": 37.1179800306826,
    "lng": 127.024814243264
  },
  {
    "name": "평택안중학현39",
    "address": "경기도 평택시 안중읍 덕우로 67-4",
    "category": "경동택배",
    "lat": 36.9970142227934,
    "lng": 126.92777117852
  },
  {
    "name": "평택이충65",
    "address": "경기 평택시 청원로 1377",
    "category": "경동택배",
    "lat": 37.0536567653819,
    "lng": 127.076202687587
  },
  {
    "name": "평택진위청호37",
    "address": "경기도 평택시 진위면 청호길 66",
    "category": "경동택배",
    "lat": 37.1184312765257,
    "lng": 127.08997581355
  },
  {
    "name": "평택청룡62",
    "address": "경기도 평택시 만세로 1469",
    "category": "경동택배",
    "lat": 37.0322304858954,
    "lng": 127.126315400303
  },
  {
    "name": "평택청북고렴479",
    "address": "경기도 평택시 청북읍 서해로 1962",
    "category": "경동택배",
    "lat": 37.0617834061534,
    "lng": 126.920561827166
  },
  {
    "name": "평택청북토진632",
    "address": "경기도 평택시 청북읍 청오로 357-42",
    "category": "경동택배",
    "lat": 37.0281323870938,
    "lng": 126.96475387898
  },
  {
    "name": "평택청북현곡253",
    "address": "경기도 평택시 청북읍 청원로55",
    "category": "경동택배",
    "lat": 37.0410620620293,
    "lng": 126.939572492485
  },
  {
    "name": "평택팽성남산317",
    "address": "경기도 평택시 팽성읍 사거리길 56-28",
    "category": "경동택배",
    "lat": 36.9461756966946,
    "lng": 127.05437579399
  },
  {
    "name": "평택포승도곡845",
    "address": "경기 평택시 포승읍 도곡리 845-14",
    "category": "경동택배",
    "lat": 36.9868544534089,
    "lng": 126.871779816549
  },
  {
    "name": "평택포승만호324",
    "address": "경기 평택시 포승읍 만호리 324-1",
    "category": "경동택배",
    "lat": 36.9592244707395,
    "lng": 126.854880359997
  },
  {
    "name": "평택포승만호577",
    "address": "경기 평택시 포승읍 만호리 577-5",
    "category": "경동택배",
    "lat": 36.9742015915145,
    "lng": 126.844404365829
  },
  {
    "name": "평택포승방림357",
    "address": "경기 평택시 포승읍 방림리 357-1",
    "category": "경동택배",
    "lat": 36.9703862462117,
    "lng": 126.886874448664
  },
  {
    "name": "평택포승석정605",
    "address": "경기 평택시 포승읍 석정리 605-1",
    "category": "경동택배",
    "lat": 37.0059330207441,
    "lng": 126.890638221262
  },
  {
    "name": "포천가산금현250",
    "address": "경기도 포천시 가산면 포천로 709",
    "category": "경동택배",
    "lat": 37.8358354741134,
    "lng": 127.200903822229
  },
  {
    "name": "포천군내용정39",
    "address": "경기 포천시 군내면 용정리 39-9",
    "category": "경동택배",
    "lat": 37.8745858862955,
    "lng": 127.216802021694
  },
  {
    "name": "포천내촌음현470",
    "address": "경기도 포천시 내촌면 금강로 2018번길 41",
    "category": "경동택배",
    "lat": 37.7573597757285,
    "lng": 127.224363234884
  },
  {
    "name": "포천내촌진목714",
    "address": "경기도 포천시 내촌면 부마로 503번길 3",
    "category": "경동택배",
    "lat": 37.7842485975391,
    "lng": 127.20794101937
  },
  {
    "name": "포천소흘무봉87",
    "address": "경기도 포천시 소흘읍 소흘로 139번길 7",
    "category": "경동택배",
    "lat": 37.8135654744386,
    "lng": 127.145450237137
  },
  {
    "name": "포천소흘송우110",
    "address": "경기도 포천시 소흘읍 호국로 686",
    "category": "경동택배",
    "lat": 37.8289750601905,
    "lng": 127.150547945289
  },
  {
    "name": "포천소흘이동교678",
    "address": "경기 포천시 소흘읍 이동교리 678",
    "category": "경동택배",
    "lat": 37.792760117434,
    "lng": 127.125007670587
  },
  {
    "name": "포천신북기지685",
    "address": "경기도 포천시 신북면 틀못이길 11-35",
    "category": "경동택배",
    "lat": 37.9231169303769,
    "lng": 127.224341132134
  },
  {
    "name": "포천어룡67",
    "address": "경기도 포천시 어가길 31",
    "category": "경동택배",
    "lat": 37.8828999472035,
    "lng": 127.193680981636
  },
  {
    "name": "포천일동길명782",
    "address": "경기도 포천시 일동면 영일로 429",
    "category": "경동택배",
    "lat": 37.9385503004749,
    "lng": 127.265613027674
  },
  {
    "name": "포항남구상도18",
    "address": "경상북도 포항시 남구 상공로 86",
    "category": "경동택배",
    "lat": 36.015610440163,
    "lng": 129.359408427464
  },
  {
    "name": "포항남구연일오천183",
    "address": "경상북도 포항시 남구 연일읍 철강로141번길 85-9",
    "category": "경동택배",
    "lat": 35.9958294398174,
    "lng": 129.36026983098
  },
  {
    "name": "포항남구오천원리1126",
    "address": "경북 포항시 남구 오천읍 하원로47번길 6",
    "category": "경동택배",
    "lat": 35.9751954928845,
    "lng": 129.403897944659
  },
  {
    "name": "포항남구해도53",
    "address": "경상북도 포항시 남구 중앙로 81",
    "category": "경동택배",
    "lat": 36.0203564549279,
    "lng": 129.368890140256
  },
  {
    "name": "포항북구여남275",
    "address": "경상북도 포항시 북구 새천년대로1448번길 38",
    "category": "경동택배",
    "lat": 36.0777625918073,
    "lng": 129.408958611941
  },
  {
    "name": "포항북구여남A",
    "address": "경상북도 포항시 북구 새천년대로1448번길 38",
    "category": "경동택배",
    "lat": 36.0777625918073,
    "lng": 129.408958611941
  },
  {
    "name": "포항북구죽도644",
    "address": "경상북도 포항시 북구 포스코대로 280",
    "category": "경동택배",
    "lat": 36.0202989608243,
    "lng": 129.354646764978
  },
  {
    "name": "포항북구흥해용전719",
    "address": "경북 포항시 북구 흥해읍 용전리 719-10",
    "category": "경동택배",
    "lat": 36.1202506813876,
    "lng": 129.335519560571
  },
  {
    "name": "하남감북39",
    "address": "경기도 하남시 감초로 131번길 11",
    "category": "경동택배",
    "lat": 37.5252738634897,
    "lng": 127.161921632557
  },
  {
    "name": "하남창우54",
    "address": "경기도 하남시 창우로 172",
    "category": "경동택배",
    "lat": 37.5407470839192,
    "lng": 127.231903201513
  },
  {
    "name": "하남하사창296",
    "address": "경기도 하남시 고골로 124",
    "category": "경동택배",
    "lat": 37.5148189927349,
    "lng": 127.197189142089
  },
  {
    "name": "화성금곡102",
    "address": "경기 화성시 금곡동 102",
    "category": "경동택배",
    "lat": 37.183722001233,
    "lng": 127.077367425396
  },
  {
    "name": "화성남양북양528",
    "address": "경기도 화성시 남양읍 현대기아로 741-3",
    "category": "경동택배",
    "lat": 37.2136533261546,
    "lng": 126.856968904314
  },
  {
    "name": "화성남양신남1240",
    "address": "경기도 화성시 남양읍 신남로 316-14",
    "category": "경동택배",
    "lat": 37.1726685024968,
    "lng": 126.804152321415
  },
  {
    "name": "화성마도두곡287",
    "address": "경기도 화성시 마도면 송정로 20-3",
    "category": "경동택배",
    "lat": 37.208572226965,
    "lng": 126.776153945788
  },
  {
    "name": "화성마도쌍송624",
    "address": "경기도 화성시 마도면 청원로 283-9",
    "category": "경동택배",
    "lat": 37.1800962496094,
    "lng": 126.784329530159
  },
  {
    "name": "화성마도쌍송90",
    "address": "경기도 화성시 마도면 마도로 790",
    "category": "경동택배",
    "lat": 37.1919494641095,
    "lng": 126.78901190933
  },
  {
    "name": "화성마도청원71",
    "address": "경기도 화성시 마도면 절골로 12",
    "category": "경동택배",
    "lat": 37.19027002232,
    "lng": 126.763635898787
  },
  {
    "name": "화성반월340",
    "address": "경기도 화성시 반월길 13",
    "category": "경동택배",
    "lat": 37.2284715240189,
    "lng": 127.063407093491
  },
  {
    "name": "화성방교756",
    "address": "경기 화성시 방교동 756-8",
    "category": "경동택배",
    "lat": 37.18176257943,
    "lng": 127.089626999954
  },
  {
    "name": "화성봉담유193",
    "address": "경기 화성시 봉담읍 유리 193-1",
    "category": "경동택배",
    "lat": 37.1730090397733,
    "lng": 126.932900834274
  },
  {
    "name": "화성비봉자안505",
    "address": "경기도 화성시 비봉면 푸른들판로 1119",
    "category": "경동택배",
    "lat": 37.2035572875792,
    "lng": 126.873735336336
  },
  {
    "name": "화성서신전곡487",
    "address": "경기도 화성시 서신면 당성로115번길 21",
    "category": "경동택배",
    "lat": 37.1869140997087,
    "lng": 126.689303382011
  },
  {
    "name": "화성송산사강320",
    "address": "경기 화성시 송산면 사강리 320-4",
    "category": "경동택배",
    "lat": 37.2154689696885,
    "lng": 126.726275471808
  },
  {
    "name": "화성안녕186",
    "address": "경기도 화성시 세자로 494",
    "category": "경동택배",
    "lat": 37.2066296530287,
    "lng": 126.988474852397
  },
  {
    "name": "화성양감대양1112",
    "address": "경기도 화성시 양감면 두머리길 2",
    "category": "경동택배",
    "lat": 37.09665402198,
    "lng": 126.939880234136
  },
  {
    "name": "화성양감송산461",
    "address": "경기도 화성시 양감면 송말길 97-4",
    "category": "경동택배",
    "lat": 37.1062394932081,
    "lng": 126.988673570733
  },
  {
    "name": "화성양감요당195",
    "address": "경기도 화성시 양감면 요당리 195-4",
    "category": "경동택배",
    "lat": 37.0651582394555,
    "lng": 126.931784735858
  },
  {
    "name": "화성양감요당580",
    "address": "경기도 화성시 양감면 암소고개로 237",
    "category": "경동택배",
    "lat": 37.0770699696101,
    "lng": 126.914937020502
  },
  {
    "name": "화성장안독정163",
    "address": "경기도 화성시 장안면 장안로 425",
    "category": "경동택배",
    "lat": 37.0785686841665,
    "lng": 126.8606932493
  },
  {
    "name": "화성장안사곡465",
    "address": "경기도 화성시 장안면 기아자동차로676",
    "category": "경동택배",
    "lat": 37.0679144869015,
    "lng": 126.808018304858
  },
  {
    "name": "화성장안석포392",
    "address": "경기도 화성시 장안면 버들로 1213",
    "category": "경동택배",
    "lat": 37.1304519941226,
    "lng": 126.841293112413
  },
  {
    "name": "화성장안석포754",
    "address": "경기도 화성시 장안면 석포로 325-3",
    "category": "경동택배",
    "lat": 37.1429264392562,
    "lng": 126.828410040197
  },
  {
    "name": "화성장안수촌939",
    "address": "경기도 화성시 장안면 3.1만세로 433",
    "category": "경동택배",
    "lat": 37.1035920701831,
    "lng": 126.850135896219
  },
  {
    "name": "화성정남괘랑1064",
    "address": "경기도 화성시 정남면 세자로 34",
    "category": "경동택배",
    "lat": 37.1721227651532,
    "lng": 126.981066230717
  },
  {
    "name": "화성정남덕절243",
    "address": "경기 화성시 정남면 덕절리 243-1",
    "category": "경동택배",
    "lat": 37.1358809048383,
    "lng": 127.022584598651
  },
  {
    "name": "화성정남수면65",
    "address": "경기도 화성시 정남면 안념길 204-1",
    "category": "경동택배",
    "lat": 37.1604210352005,
    "lng": 127.021416993722
  },
  {
    "name": "화성정남신리143",
    "address": "경기도 화성시 정남면 서봉로 1053-11",
    "category": "경동택배",
    "lat": 37.1634597200564,
    "lng": 126.976460347953
  },
  {
    "name": "화성정남음양938",
    "address": "경기도 화성시 정남면 정남산단로 142-5",
    "category": "경동택배",
    "lat": 37.1425168885895,
    "lng": 127.029795846515
  },
  {
    "name": "화성팔탄고주197",
    "address": "경기도 화성시 제암고주로 114",
    "category": "경동택배",
    "lat": 37.1306040793211,
    "lng": 126.887619532844
  },
  {
    "name": "화성팔탄구장112",
    "address": "경기도 화성시 팔탄면 푸른들판로 650",
    "category": "경동택배",
    "lat": 37.1664185750796,
    "lng": 126.896113392518
  },
  {
    "name": "화성팔탄구장179",
    "address": "경기도 화성시 팔탄면 푸른들판로 557-6",
    "category": "경동택배",
    "lat": 37.1586846968852,
    "lng": 126.898069118677
  },
  {
    "name": "화성팔탄덕우115",
    "address": "경기도 화성시 팔탄면 온천로165번길 20",
    "category": "경동택배",
    "lat": 37.1407519648351,
    "lng": 126.861904950154
  },
  {
    "name": "화성팔탄율암396",
    "address": "경기도 화성시 팔탄면 시청로766번길 19-6",
    "category": "경동택배",
    "lat": 37.168013567249,
    "lng": 126.875568846218
  },
  {
    "name": "화성팔탄하저930",
    "address": "경기도 화성시 팔탄면 무하로 147",
    "category": "경동택배",
    "lat": 37.1853792230243,
    "lng": 126.858456101904
  },
  {
    "name": "화성향남동오132",
    "address": "경기도 화성시 향남읍 서봉로 684-10",
    "category": "경동택배",
    "lat": 37.1362639338137,
    "lng": 126.95663885194
  },
  {
    "name": "화성향남상신1150",
    "address": "경기도 화성시 향남읍 장안로850 1동",
    "category": "경동택배",
    "lat": 37.0915243052355,
    "lng": 126.89203394185
  },
  {
    "name": "화성향남증거331",
    "address": "경기도 화성시 향남읍 만년로151번길 12",
    "category": "경동택배",
    "lat": 37.1362762541945,
    "lng": 126.977224630936
  }
]